City_ID,City,Country,Date,Lat,Lng,Max Temp,Humidity,Cloudiness,Wind Speed
0,Margate,GB,2021-07-22 13:53:50,51.3813,1.3862,79.88,70,0,1.99
1,Cabo San Lucas,MX,2021-07-22 14:00:25,22.8909,-109.9124,83.52,66,1,5.66
2,Punta Arenas,CL,2021-07-22 14:00:26,-53.15,-70.9167,35.11,93,100,6.69
3,Saint-Philippe,RE,2021-07-22 14:00:26,-21.3585,55.7679,72.99,74,50,12.95
4,Lebu,CL,2021-07-22 14:00:26,-37.6167,-73.65,50.09,83,99,3.53
5,Mataura,NZ,2021-07-22 14:00:26,-46.1927,168.8643,40.48,97,10,2.26
6,Atuona,PF,2021-07-22 14:00:26,-9.8,-139.0333,76.77,77,100,12.57
7,Pangody,RU,2021-07-22 13:56:03,65.85,74.4859,64.58,54,30,13.4
8,Oga,IT,2021-07-22 14:00:27,46.4631,10.347,72.14,62,27,2.8
9,Chokurdakh,RU,2021-07-22 14:00:27,70.6333,147.9167,38.59,84,58,8.39
10,Leningradskiy,RU,2021-07-22 14:00:27,69.3833,178.4167,34.86,84,48,2.53
11,Ushuaia,AR,2021-07-22 14:00:20,-54.8,-68.3,37.35,97,100,6.69
12,Avarua,CK,2021-07-22 14:00:28,-21.2078,-159.775,69.85,100,18,3.44
13,Hamilton,US,2021-07-22 14:00:28,39.1834,-84.5333,73.99,71,9,1.01
14,Ixtapa,MX,2021-07-22 14:00:28,20.7,-105.2,83.23,84,25,1.99
15,Mosalsk,RU,2021-07-22 14:00:28,54.4881,34.9817,69.49,44,22,10.33
16,Carnarvon,AU,2021-07-22 14:00:28,-24.8667,113.6333,65.82,64,0,11.21
17,Port Alfred,ZA,2021-07-22 14:00:29,-33.5906,26.891,50.72,76,100,25.05
18,Lagoa,PT,2021-07-22 14:00:29,39.05,-27.9833,67.21,75,57,12.68
19,Skjervoy,NO,2021-07-22 14:00:29,70.0311,20.9714,46.58,88,100,15.14
20,Samarai,PG,2021-07-22 14:00:29,-10.6167,150.6667,77.7,75,100,11.61
21,Hobart,AU,2021-07-22 14:00:29,-42.8794,147.3294,52.27,57,0,4.0
22,Norman Wells,CA,2021-07-22 14:00:30,65.282,-126.8329,63.61,79,4,7.23
23,Beringovskiy,RU,2021-07-22 14:00:30,63.05,179.3167,47.1,87,47,5.55
24,Port Hardy,CA,2021-07-22 14:00:30,50.6996,-127.4199,54.77,91,100,3.49
25,Dauphin,CA,2021-07-22 14:00:31,51.1494,-100.0502,68.14,75,90,5.75
26,Busselton,AU,2021-07-22 14:00:31,-33.65,115.3333,55.09,71,100,14.63
27,Thompson,CA,2021-07-22 14:00:32,55.7435,-97.8558,70.39,64,6,7.16
28,Kaitangata,NZ,2021-07-22 14:00:32,-46.2817,169.8464,41.94,79,4,6.42
29,Sumbawanga,TZ,2021-07-22 14:00:32,-7.9667,31.6167,74.39,29,40,7.61
30,Champawat,IN,2021-07-22 14:00:33,29.3333,80.1,64.58,92,61,4.07
31,Stornoway,GB,2021-07-22 13:55:59,58.2093,-6.3865,63.93,82,20,10.36
32,Rikitea,PF,2021-07-22 13:48:19,-23.1203,-134.9692,72.03,71,13,11.05
33,Amapa,BR,2021-07-22 14:00:33,1.0,-52.0,85.12,61,26,4.88
34,Cherskiy,RU,2021-07-22 14:00:34,68.75,161.3,57.52,58,100,4.99
35,New Norfolk,AU,2021-07-22 14:00:34,-42.7826,147.0587,51.93,59,100,1.99
36,Funtua,NG,2021-07-22 14:00:34,11.5233,7.3081,81.18,61,100,9.51
37,Nantucket,US,2021-07-22 14:00:35,41.2835,-70.0995,72.25,85,2,18.52
38,Auki,SB,2021-07-22 14:00:35,-8.7676,160.7034,76.93,88,100,4.56
39,Mahebourg,MU,2021-07-22 14:00:35,-20.4081,57.7,72.25,70,44,18.41
40,Constitucion,CL,2021-07-22 14:00:15,-35.3333,-72.4167,55.38,81,100,4.52
41,Lerwick,GB,2021-07-22 14:00:36,60.1545,-1.1494,55.4,76,38,7.56
42,Jamestown,US,2021-07-22 14:00:36,42.097,-79.2353,69.3,86,89,1.99
43,Ende,ID,2021-07-22 14:00:36,-8.8432,121.6623,74.17,83,4,2.33
44,Assiniboia,CA,2021-07-22 14:00:36,49.6334,-105.9845,75.61,57,53,4.88
45,Georgetown,MY,2021-07-22 14:00:36,5.4112,100.3354,87.89,62,20,5.75
46,Puerto Del Rosario,ES,2021-07-22 14:00:37,28.5004,-13.8627,82.15,51,20,23.02
47,Kavaratti,IN,2021-07-22 14:00:37,10.5669,72.642,82.67,81,100,22.95
48,Talnakh,RU,2021-07-22 14:00:37,69.4865,88.3972,59.83,94,100,19.3
49,Kruisfontein,ZA,2021-07-22 14:00:37,-34.0033,24.7314,45.88,72,100,21.16
50,Port Elizabeth,ZA,2021-07-22 14:00:38,-33.918,25.5701,48.49,87,90,16.11
51,Portland,US,2021-07-22 13:57:09,45.5234,-122.6762,56.46,89,44,1.01
52,Khatanga,RU,2021-07-22 14:00:38,71.9667,102.5,58.68,74,93,5.37
53,Abha,SA,2021-07-22 13:58:01,18.2164,42.5053,71.42,73,40,11.5
54,Bambous Virieux,MU,2021-07-22 14:00:39,-20.3428,57.7575,72.21,69,48,18.32
55,Vardo,NO,2021-07-22 14:00:39,70.3705,31.1107,46.6,69,95,28.48
56,East London,ZA,2021-07-22 13:58:15,-33.0153,27.9116,56.34,44,0,32.21
57,Cape Town,ZA,2021-07-22 13:49:34,-33.9258,18.4232,57.11,64,40,4.0
58,Faanui,PF,2021-07-22 14:00:40,-16.4833,-151.75,78.44,74,8,14.99
59,Ilulissat,GL,2021-07-22 14:00:40,69.2167,-51.1,53.62,40,75,9.22
60,Slatina,RO,2021-07-22 14:00:17,44.4333,24.3667,84.43,33,64,6.15
61,Victoria,HK,2021-07-22 13:58:38,22.2855,114.1577,86.32,78,38,3.0
62,Bhimunipatnam,IN,2021-07-22 14:00:42,17.8833,83.4333,81.91,82,100,13.65
63,Kapaa,US,2021-07-22 14:00:42,22.0752,-159.319,73.38,84,100,1.99
64,Bluff,NZ,2021-07-22 14:00:42,-46.6,168.3333,40.8,80,71,13.49
65,Saint George,US,2021-07-22 13:57:54,37.1041,-113.5841,84.34,55,100,1.01
66,Katherine,AU,2021-07-22 14:00:42,-14.4667,132.2667,62.92,59,26,0.0
67,Te Anau,NZ,2021-07-22 14:00:43,-45.4167,167.7167,36.55,93,30,0.58
68,Si Sa Ket,TH,2021-07-22 14:00:43,14.8333,104.3333,82.0,76,100,12.01
69,Ruidoso,US,2021-07-22 14:00:43,33.3317,-105.673,65.52,75,20,0.0
70,Pozoblanco,ES,2021-07-22 14:00:43,38.3791,-4.8483,97.38,9,0,11.21
71,Olafsvik,IS,2021-07-22 14:00:44,64.8945,-23.7142,52.32,96,100,16.75
72,Tiksi,RU,2021-07-22 13:58:24,71.6872,128.8694,40.68,86,100,4.12
73,Lebedinyy,RU,2021-07-22 14:00:44,58.5167,125.5167,56.75,88,83,2.8
74,Airai,TL,2021-07-22 14:00:44,-8.9266,125.4092,55.74,71,0,1.92
75,Nome,US,2021-07-22 14:00:45,64.5011,-165.4064,37.47,87,75,6.91
76,Pochutla,MX,2021-07-22 14:00:45,15.7432,-96.4661,81.82,66,11,1.36
77,Taoudenni,ML,2021-07-22 14:00:45,22.6783,-3.9836,117.43,8,44,15.37
78,Arraial Do Cabo,BR,2021-07-22 14:00:45,-22.9661,-42.0278,67.68,74,15,2.44
79,Alofi,NU,2021-07-22 14:00:45,-19.0595,-169.9187,76.75,76,0,16.78
80,Coari,BR,2021-07-22 14:00:19,-4.085,-63.1414,85.5,53,34,1.5
81,Evensk,RU,2021-07-22 14:00:46,61.95,159.2333,48.65,97,100,6.02
82,Raigarh,IN,2021-07-22 13:58:14,21.9,83.4,86.14,77,85,4.38
83,Upernavik,GL,2021-07-22 14:00:46,72.7868,-56.1549,40.23,96,100,8.01
84,Suicheng,CN,2021-07-22 14:00:46,33.8963,117.9331,77.41,85,98,9.26
85,Rujewa,TZ,2021-07-22 14:00:46,-8.7,34.3833,83.66,27,29,13.67
86,Chapais,CA,2021-07-22 14:00:47,49.7834,-74.8492,66.13,39,100,6.89
87,Marienburg,PL,2021-07-22 14:00:47,54.0359,19.0266,73.06,46,36,9.84
88,Puerto Ayora,EC,2021-07-22 14:00:47,-0.7393,-90.3518,71.55,93,100,5.01
89,Praia Da Vitoria,PT,2021-07-22 14:00:48,38.7333,-27.0667,74.75,60,71,14.74
90,Yellowknife,CA,2021-07-22 14:00:48,62.456,-114.3525,62.33,100,100,1.01
91,Senanga,ZM,2021-07-22 14:00:48,-16.1167,23.2667,81.91,9,2,10.18
92,Makasar,ID,2021-07-22 14:00:48,-5.14,119.4221,78.85,89,20,1.14
93,Humberto De Campos,BR,2021-07-22 14:00:49,-2.5983,-43.4611,86.65,52,45,9.04
94,Bushehr,IR,2021-07-22 14:00:49,28.9684,50.8385,97.14,58,11,10.45
95,Alta Floresta,BR,2021-07-22 14:00:49,-9.8756,-56.0861,89.37,23,0,6.24
96,Yarmouth,US,2021-07-22 14:00:50,41.7057,-70.2286,74.35,76,40,15.01
97,Luwuk,ID,2021-07-22 14:00:50,-0.9516,122.7875,75.67,92,100,6.35
98,Marawi,PH,2021-07-22 14:00:51,7.9986,124.2928,70.56,89,100,6.46
99,Mawlaik,MM,2021-07-22 14:00:51,23.6333,94.4167,77.22,98,100,1.34
100,Vaitape,PF,2021-07-22 14:00:51,-16.5167,-151.75,78.44,74,8,15.03
101,Harper,LR,2021-07-22 14:00:51,4.375,-7.7169,79.83,71,75,10.6
102,Bemidji,US,2021-07-22 14:00:52,47.4736,-94.8803,74.17,87,1,11.5
103,Maine-Soroa,NE,2021-07-22 14:00:52,13.2114,12.0241,94.73,38,91,10.27
104,Cerrito,CO,2021-07-22 14:00:52,6.8432,-72.694,61.23,72,52,3.49
105,Sitka,US,2021-07-22 14:00:52,57.0531,-135.33,55.29,88,90,3.44
106,Bredasdorp,ZA,2021-07-22 14:00:52,-34.5322,20.0403,52.29,72,52,8.1
107,Vilyuysk,RU,2021-07-22 14:00:53,63.7553,121.6247,64.26,75,19,3.04
108,Sobolevo,RU,2021-07-22 14:00:53,54.4299,31.8996,71.46,40,3,10.33
109,Kaabong,UG,2021-07-22 14:00:53,3.4836,34.1492,73.15,63,100,2.68
110,Vaini,TO,2021-07-22 14:00:53,-21.2,-175.2,76.03,68,100,11.07
111,Buritis,BR,2021-07-22 14:00:53,-15.6178,-46.4233,79.59,39,8,7.61
112,Garoua,CM,2021-07-22 13:58:25,9.3,13.4,90.0,58,40,12.66
113,Esperance,AU,2021-07-22 14:00:54,-33.8667,121.9,51.8,70,30,16.13
114,Cotonou,BJ,2021-07-22 14:00:05,6.3654,2.4183,80.38,69,100,13.15
115,Bathsheba,BB,2021-07-22 14:00:54,13.2167,-59.5167,82.89,76,54,17.47
116,Aksay,RU,2021-07-22 14:00:54,47.26,39.87,82.62,75,90,13.22
117,Bandarbeyla,SO,2021-07-22 14:00:54,9.4942,50.8122,80.02,73,76,31.18
118,Cockburn Town,TC,2021-07-22 14:00:55,21.4612,-71.1419,81.19,78,37,17.22
119,Butterworth,MY,2021-07-22 14:00:55,5.3991,100.3638,88.0,62,20,5.75
120,Pacific Grove,US,2021-07-22 14:00:55,36.6177,-121.9166,57.29,92,32,4.0
121,Ostrovnoy,RU,2021-07-22 14:00:55,68.0531,39.5131,46.13,88,100,11.95
122,Hilo,US,2021-07-22 13:59:46,19.7297,-155.09,72.1,94,80,3.0
123,Castro,BR,2021-07-22 14:00:56,-24.7911,-50.0119,61.56,46,0,5.68
124,Tezu,IN,2021-07-22 14:00:56,27.9167,96.1667,82.15,83,19,4.27
125,San Patricio,US,2021-07-22 14:00:56,28.017,-97.5169,82.81,78,93,2.57
126,Lisakovsk,KZ,2021-07-22 14:00:56,52.5369,62.4936,91.29,35,34,3.58
127,Ribeira Grande,PT,2021-07-22 14:00:56,38.5167,-28.7,73.8,60,40,11.5
128,Albany,US,2021-07-22 14:00:57,42.6001,-73.9662,72.75,76,97,6.4
129,Saldanha,ZA,2021-07-22 14:00:57,-33.0117,17.9442,53.85,62,8,11.61
130,Cayenne,GF,2021-07-22 14:00:33,4.9333,-52.3333,87.84,77,75,1.99
131,Malaya Vishera,RU,2021-07-22 14:00:57,58.8454,32.2222,66.49,52,100,8.16
132,Iqaluit,CA,2021-07-22 14:00:57,63.7506,-68.5145,47.7,76,100,11.99
133,Tuktoyaktuk,CA,2021-07-22 14:00:58,69.4541,-133.0374,42.84,90,97,17.83
134,Tuatapere,NZ,2021-07-22 14:00:58,-46.1333,167.6833,40.82,90,3,4.32
135,Ballina,AU,2021-07-22 14:00:59,-28.8667,153.5667,48.78,85,11,6.13
136,Keffi,NG,2021-07-22 14:00:59,8.8486,7.8736,79.32,80,100,6.64
137,Severo-Kurilsk,RU,2021-07-22 14:00:59,50.6789,156.125,49.26,95,57,4.7
138,Novovasylivka,UA,2021-07-22 14:01:00,46.8315,35.7536,74.98,68,99,18.59
139,Cidreira,BR,2021-07-22 14:01:00,-30.1811,-50.2056,60.3,64,6,11.88
140,Bubaque,GW,2021-07-22 14:01:01,11.2833,-15.8333,80.73,81,94,12.95
141,Hermanus,ZA,2021-07-22 14:01:02,-34.4187,19.2345,52.9,65,82,9.08
142,Pevek,RU,2021-07-22 14:01:02,69.7008,170.3133,39.04,73,92,3.69
143,Sao Filipe,CV,2021-07-22 14:01:03,14.8961,-24.4956,75.9,86,21,7.2
144,Kompaniyivka,UA,2021-07-22 14:01:04,48.2511,32.208,72.5,54,93,14.12
145,Barrow,US,2021-07-22 14:01:05,71.2906,-156.7887,35.62,93,90,16.11
146,Vakhrushi,RU,2021-07-22 13:56:25,58.6847,50.0261,62.31,89,100,8.25
147,Tatvan,TR,2021-07-22 14:01:06,38.5067,42.2817,88.97,16,0,12.15
148,Tasiilaq,GL,2021-07-22 14:01:06,65.6145,-37.6368,46.56,97,100,11.36
149,Buchanan,LR,2021-07-22 14:01:06,5.8808,-10.0467,82.36,75,50,11.32
150,Qianan,CN,2021-07-22 14:00:47,44.9932,124.0581,75.76,80,17,8.66
151,Whakatane,NZ,2021-07-22 13:56:57,-37.9585,176.9854,47.77,86,88,3.33
152,Akyab,MM,2021-07-22 14:01:07,20.15,92.9,81.97,86,100,21.9
153,Port Hawkesbury,CA,2021-07-22 14:01:08,45.6169,-61.3485,67.91,97,90,3.0
154,Port Lincoln,AU,2021-07-22 14:01:08,-34.7333,135.8667,52.54,84,96,9.4
155,Pimentel,PE,2021-07-22 14:01:09,-6.8367,-79.9342,66.99,82,64,3.0
156,Ancud,CL,2021-07-22 13:59:29,-41.8697,-73.8203,49.53,93,100,13.8
157,Sibolga,ID,2021-07-22 14:01:10,1.7427,98.7792,78.17,82,63,2.98
158,Fuxin,CN,2021-07-22 14:01:11,42.0156,121.6589,75.83,74,100,4.59
159,Narsaq,GL,2021-07-22 14:01:11,60.9167,-46.05,53.82,63,14,4.29
160,Malartic,CA,2021-07-22 14:01:11,48.1335,-78.1328,61.02,88,99,1.7
161,Deogarh,IN,2021-07-22 14:01:12,21.5333,84.7333,83.64,80,100,1.81
162,Pontes E Lacerda,BR,2021-07-22 14:01:12,-15.2261,-59.3353,85.98,18,0,5.01
163,Aranos,NA,2021-07-22 14:01:12,-24.1333,19.1167,59.85,8,2,9.62
164,Atar,MR,2021-07-22 14:01:13,20.5169,-13.0499,100.69,9,50,10.36
165,Strezhevoy,RU,2021-07-22 14:01:13,60.7333,77.5889,71.58,83,100,2.91
166,Dikson,RU,2021-07-22 14:01:13,73.5069,80.5464,52.14,90,100,28.41
167,Yima,CN,2021-07-22 14:01:13,34.7381,111.8839,69.8,95,99,14.74
168,Boa Vista,BR,2021-07-22 14:00:17,2.8197,-60.6733,84.18,74,75,3.44
169,Kodiak,US,2021-07-22 14:01:14,57.79,-152.4072,52.54,97,100,9.28
170,Salym,RU,2021-07-22 14:01:14,60.0625,71.4789,74.52,55,90,2.68
171,Namibe,AO,2021-07-22 14:01:14,-15.1961,12.1522,78.93,43,0,11.74
172,Arona,ES,2021-07-22 14:01:14,28.0996,-16.681,70.32,63,0,8.99
173,Vao,NC,2021-07-22 14:01:15,-22.6667,167.4833,69.55,74,1,9.04
174,Buinsk,RU,2021-07-22 14:01:15,54.95,48.2833,68.22,70,17,11.32
175,Mount Isa,AU,2021-07-22 14:01:15,-20.7333,139.5,58.77,44,100,3.44
176,Porto Novo,BJ,2021-07-22 14:01:15,6.4965,2.6036,82.9,61,100,11.16
177,Honiara,SB,2021-07-22 14:01:16,-9.4333,159.95,75.92,90,98,6.82
178,Bonthe,SL,2021-07-22 14:01:16,7.5264,-12.505,81.81,74,71,10.02
179,Saskylakh,RU,2021-07-22 14:01:16,71.9167,114.0833,62.55,54,98,16.22
180,Hami,CN,2021-07-22 14:01:16,42.8,93.45,98.01,14,32,8.1
181,Olinda,BR,2021-07-22 13:56:21,-8.0089,-34.8553,80.33,61,40,17.27
182,Fort Nelson,CA,2021-07-22 14:01:17,58.8053,-122.7002,53.08,89,55,3.0
183,Chuy,UY,2021-07-22 14:01:17,-33.6971,-53.4616,55.0,64,15,7.43
184,Inhambane,MZ,2021-07-22 14:01:18,-23.865,35.3833,75.96,52,0,14.58
185,Lompoc,US,2021-07-22 14:01:18,34.6391,-120.4579,66.78,84,90,8.99
186,Matara,LK,2021-07-22 14:01:19,5.9485,80.5353,78.87,87,98,14.61
187,Kupino,RU,2021-07-22 14:01:19,54.3663,77.2981,73.15,59,2,5.95
188,Pyaozerskiy,RU,2021-07-22 14:01:20,65.8333,31.1667,57.33,61,98,12.33
189,Westerland,DE,2021-07-22 14:00:36,54.9079,8.3033,69.19,59,40,12.66
190,Fairbanks,US,2021-07-22 14:01:20,64.8378,-147.7164,61.02,72,92,1.72
191,Roald,NO,2021-07-22 14:01:21,62.5833,6.1333,65.16,82,75,9.22
192,Rocha,UY,2021-07-22 14:01:21,-34.4833,-54.3333,56.32,58,66,7.83
193,Normandin,CA,2021-07-22 14:01:21,48.8333,-72.5321,67.59,46,100,5.06
194,Ponta Do Sol,PT,2021-07-22 14:01:21,32.6667,-17.1,81.72,68,0,4.18
195,Ostersund,SE,2021-07-22 14:01:21,63.1792,14.6357,59.61,67,75,32.21
196,Atherton,GB,2021-07-22 14:01:22,53.5237,-2.4935,90.9,41,6,1.99
197,Nikolskoye,RU,2021-07-22 14:01:22,59.7035,30.7861,69.4,42,100,11.59
198,Severomuysk,RU,2021-07-22 14:01:22,56.1481,113.4267,55.47,87,100,2.37
199,Aksha,RU,2021-07-22 14:01:22,50.2814,113.2867,63.36,92,100,8.16
200,Bouna,CI,2021-07-22 13:58:19,9.2667,-3.0,85.05,55,93,7.76
201,Kavieng,PG,2021-07-22 14:01:23,-2.5744,150.7967,81.91,79,56,11.34
202,Honningsvag,NO,2021-07-22 14:01:23,70.9821,25.9704,44.42,72,90,27.4
203,Road Town,VG,2021-07-22 14:01:24,18.4167,-64.6167,86.2,74,40,11.5
204,Ormara,PK,2021-07-22 14:01:24,25.2088,64.6357,83.93,89,9,11.48
205,Svetlogorsk,BY,2021-07-22 14:01:24,52.6333,29.7333,74.71,36,1,9.15
206,Mantua,IT,2021-07-22 14:00:53,45.1667,10.7833,95.49,56,18,5.99
207,Birao,CF,2021-07-22 14:01:25,10.2849,22.7882,77.88,74,90,6.76
208,Kuytun,RU,2021-07-22 14:01:25,54.3419,101.5036,63.32,64,30,4.88
209,Hithadhoo,MV,2021-07-22 14:01:25,-0.6,73.0833,81.86,76,100,12.64
210,Mahina,PF,2021-07-22 14:01:25,-17.5065,-149.489,73.17,83,40,2.3
211,Vangaindrano,MG,2021-07-22 14:01:25,-23.35,47.6,70.03,81,0,8.28
212,Srednekolymsk,RU,2021-07-22 13:57:32,67.45,153.6833,56.1,71,76,5.48
213,La Macarena,CO,2021-07-22 14:01:26,2.1837,-73.7849,69.71,99,99,2.13
214,Sao Joao Da Barra,BR,2021-07-22 14:01:26,-21.6403,-41.0511,70.25,69,93,4.36
215,Merauke,ID,2021-07-22 14:01:26,-8.4667,140.3333,76.01,82,77,13.53
216,Puquio,PE,2021-07-22 14:01:27,-14.7,-74.1333,55.74,43,7,9.73
217,Mar Del Plata,AR,2021-07-22 13:57:50,-38.0023,-57.5575,57.99,70,0,15.01
218,Salinopolis,BR,2021-07-22 14:01:28,-0.6136,-47.3561,84.65,68,50,13.0
219,Pizarro,CO,2021-07-22 14:01:28,4.9533,-77.366,80.13,86,79,4.92
220,Luderitz,NA,2021-07-22 14:01:28,-26.6481,15.1594,68.65,32,4,22.86
221,Mumbwa,ZM,2021-07-22 14:01:29,-14.9783,27.0619,79.18,17,0,7.81
222,Vila Franca Do Campo,PT,2021-07-22 14:01:29,37.7167,-25.4333,72.01,69,73,8.72
223,Bambanglipuro,ID,2021-07-22 14:01:29,-7.95,110.2833,77.14,81,83,9.55
224,Codrington,AU,2021-07-22 14:01:30,-38.2667,141.9667,43.23,92,100,12.77
225,Namatanai,PG,2021-07-22 14:01:30,-3.6667,152.4333,78.64,82,86,7.61
226,Isiro,CD,2021-07-22 14:01:30,2.7739,27.616,79.83,61,100,3.11
227,Vila,PT,2021-07-22 13:57:25,42.0304,-8.1588,87.75,29,3,8.34
228,Salalah,OM,2021-07-22 14:01:31,17.0151,54.0924,80.55,85,87,12.01
229,Camacha,PT,2021-07-22 14:01:31,33.0833,-16.3333,74.62,65,40,12.66
230,Grand Gaube,MU,2021-07-22 14:01:31,-20.0064,57.6608,72.37,68,25,5.99
231,Seybaplaya,MX,2021-07-22 14:01:31,19.65,-90.6667,81.46,72,33,11.72
232,Butaritari,KI,2021-07-22 14:01:31,3.0707,172.7902,81.64,79,18,13.69
233,Lorengau,PG,2021-07-22 14:01:32,-2.0226,147.2712,81.28,79,22,5.26
234,Okhotsk,RU,2021-07-22 14:01:32,59.3833,143.3,55.13,95,100,5.68
235,Yagodnoye,RU,2021-07-22 14:01:32,62.55,149.6667,57.69,99,100,6.62
236,Finschhafen,PG,2021-07-22 14:01:32,-6.6024,147.8681,76.15,94,100,4.43
237,Tshikapa,CD,2021-07-22 14:01:14,-6.4167,20.8,97.84,13,16,5.39
238,Camalu,MX,2021-07-22 14:01:33,30.85,-116.0667,66.42,91,30,2.42
239,Ifakara,TZ,2021-07-22 14:01:33,-8.1333,36.6833,82.49,54,35,2.3
240,Plonsk,PL,2021-07-22 14:01:33,52.6235,20.3755,79.03,56,78,7.38
241,Panguna,PG,2021-07-22 14:01:33,-6.3164,155.4848,68.92,97,99,3.15
242,Bonavista,CA,2021-07-22 14:01:34,48.6499,-53.1147,52.12,87,100,10.33
243,Gizo,SB,2021-07-22 14:01:34,-8.103,156.8419,81.32,80,49,6.35
244,Nhulunbuy,AU,2021-07-22 14:01:34,-12.2333,136.7667,72.21,83,16,4.61
245,Phan Thiet,VN,2021-07-22 14:01:34,10.9333,108.1,80.89,77,97,7.61
246,Hambantota,LK,2021-07-22 14:01:34,6.1241,81.1185,80.89,78,100,20.89
247,Buala,SB,2021-07-22 14:01:35,-8.145,159.5921,79.93,85,63,8.14
248,Geraldton,AU,2021-07-22 14:01:35,-28.7667,114.6,54.01,94,40,0.0
249,Qaanaaq,GL,2021-07-22 14:01:35,77.484,-69.3632,43.45,71,68,7.4
250,Torbay,CA,2021-07-22 13:56:52,47.6666,-52.7314,55.27,99,90,9.22
251,Beloha,MG,2021-07-22 14:01:35,-25.1667,45.05,75.38,59,13,8.59
252,Novopokrovskaya,RU,2021-07-22 14:01:36,45.9514,40.7006,89.47,40,51,13.44
253,Bisho,ZA,2021-07-22 14:01:36,-32.8472,27.4422,50.63,86,90,19.3
254,Otane,NZ,2021-07-22 14:01:36,-39.8833,176.6333,47.39,78,80,3.98
255,Ha Giang,VN,2021-07-22 14:01:37,22.8333,104.9833,78.04,97,100,2.21
256,Pasighat,IN,2021-07-22 14:01:38,28.0667,95.3333,84.45,75,8,4.0
257,Krasnoarmeysk,RU,2021-07-22 14:01:38,51.0239,45.6969,76.15,57,100,13.78
258,Pisco,PE,2021-07-22 14:01:38,-13.7,-76.2167,60.03,87,23,2.15
259,Aksu,CN,2021-07-22 14:01:38,41.1231,80.2644,70.59,68,31,3.83
260,Thinadhoo,MV,2021-07-22 14:01:39,0.5333,72.9333,81.82,75,100,8.9
261,Porto Seguro,BR,2021-07-22 14:01:39,-16.4497,-39.0647,77.52,65,75,9.22
262,Cururupu,BR,2021-07-22 14:01:39,-1.8283,-44.8683,87.15,53,85,8.5
263,Port Macquarie,AU,2021-07-22 14:01:39,-31.4333,152.9167,45.9,91,96,9.44
264,Marsh Harbour,BS,2021-07-22 14:01:40,26.5412,-77.0636,83.7,73,52,7.38
265,Ternate,ID,2021-07-22 14:01:40,0.8,127.4,80.55,82,59,8.19
266,Sao Paulo De Olivenca,BR,2021-07-22 14:01:40,-3.3783,-68.8725,78.26,66,83,4.92
267,Los Llanos De Aridane,ES,2021-07-22 14:01:08,28.6585,-17.9182,74.12,75,20,19.57
268,Zlobin,HR,2021-07-22 14:01:40,45.2924,14.6541,77.16,45,0,5.75
269,Cassilandia,BR,2021-07-22 14:00:28,-19.1133,-51.7342,80.73,16,5,7.43
270,Tromso,NO,2021-07-22 14:01:41,69.6496,18.957,50.65,87,75,14.97
271,Angoche,MZ,2021-07-22 14:01:41,-16.2325,39.9086,78.13,66,93,7.74
272,Rivadavia,AR,2021-07-22 14:01:41,-33.1905,-68.4608,57.63,30,89,4.72
273,Puri,IN,2021-07-22 14:01:42,19.8,85.85,85.37,87,100,14.18
274,Galle,LK,2021-07-22 14:01:42,6.0367,80.217,80.02,85,100,17.43
275,Bhinga,IN,2021-07-22 14:01:42,27.7167,81.9333,85.44,75,96,4.03
276,Korla,CN,2021-07-22 14:01:40,41.7597,86.1469,89.8,19,83,7.54
277,Canberra,AU,2021-07-22 13:59:31,-35.2835,149.1281,38.75,90,100,0.0
278,Clyde River,CA,2021-07-22 14:01:42,70.4692,-68.5914,37.63,100,90,4.61
279,Opuwo,NA,2021-07-22 14:01:42,-18.0607,13.84,79.5,11,0,14.74
280,Wadi Musa,JO,2021-07-22 14:01:43,30.3222,35.4793,82.36,32,0,10.92
281,Isangel,VU,2021-07-22 14:01:43,-19.55,169.2667,73.76,88,99,8.88
282,Katsuura,JP,2021-07-22 14:01:43,35.1333,140.3,82.11,85,31,6.44
283,Haines Junction,CA,2021-07-22 14:01:43,60.7522,-137.5108,51.19,73,91,4.61
284,Gaozhou,CN,2021-07-22 14:01:28,21.9392,110.8461,77.56,94,76,3.89
285,Great Neck,US,2021-07-22 14:01:44,40.8007,-73.7285,77.72,64,43,3.0
286,Brae,GB,2021-07-22 14:01:44,60.3964,-1.353,55.31,76,71,11.32
287,Dicamay,PH,2021-07-22 14:01:44,16.7561,122.0037,76.21,85,100,2.55
288,Alihe,CN,2021-07-22 14:01:44,50.5667,123.7167,70.48,98,26,4.12
289,Vostok,RU,2021-07-22 14:00:12,46.4856,135.8833,69.42,85,10,3.85
290,Solnechnyy,RU,2021-07-22 14:01:45,50.7214,136.6319,75.2,81,97,4.03
291,Aklavik,CA,2021-07-22 14:00:42,68.2191,-135.0107,57.92,76,62,19.86
292,Tura,IN,2021-07-22 14:01:46,25.5198,90.2201,76.15,95,85,3.87
293,Tuma,RU,2021-07-22 14:01:46,55.148,40.5537,70.32,39,72,7.72
294,Ugoofaaru,MV,2021-07-22 14:01:46,5.6667,73.0,83.19,76,100,16.28
295,Tulun,RU,2021-07-22 14:01:47,54.5611,100.5792,62.87,67,47,3.78
296,Eureka,US,2021-07-22 14:01:47,40.8021,-124.1637,55.2,77,0,1.92
297,Ballitoville,ZA,2021-07-22 14:01:47,-29.539,31.2144,65.17,31,2,24.72
298,Porto Santo,PT,2021-07-22 14:01:48,33.072,-16.3415,77.38,65,40,12.66
299,Broken Hill,AU,2021-07-22 14:01:48,-31.95,141.4333,44.29,76,98,13.53
300,Sorland,NO,2021-07-22 14:01:48,67.667,12.6934,50.07,83,98,13.78
301,Waitati,NZ,2021-07-22 14:01:48,-45.75,170.5667,43.81,76,0,4.32
302,Tygda,RU,2021-07-22 14:01:49,53.1167,126.3333,68.45,94,100,0.43
303,Longyearbyen,SJ,2021-07-22 13:57:05,78.2186,15.6401,46.24,71,75,13.8
304,Dingolfing,DE,2021-07-22 13:59:47,48.6333,12.5,82.27,54,4,3.38
305,Bar-Le-Duc,FR,2021-07-22 14:01:49,48.75,5.1667,89.78,60,4,5.41
306,Danjiangkou,CN,2021-07-22 14:01:49,32.5428,111.5086,83.05,91,48,9.46
307,Alice Springs,AU,2021-07-22 14:01:50,-23.7,133.8833,67.55,30,12,11.5
308,Nara,JP,2021-07-22 14:01:50,34.6851,135.8049,82.26,94,42,3.02
309,Dunhua,CN,2021-07-22 14:01:50,43.3725,128.2425,71.4,89,100,2.77
310,Yuancheng,CN,2021-07-22 14:01:51,36.652,107.7896,73.11,76,97,14.34
311,Katobu,ID,2021-07-22 14:01:51,-4.9408,122.5276,72.79,94,95,2.15
312,Gorin,RU,2021-07-22 14:01:51,51.1983,136.6669,74.8,88,10,2.46
313,Asau,RO,2021-07-22 14:01:51,46.4333,26.4,74.39,51,59,7.63
314,Darab,IR,2021-07-22 14:01:51,28.7519,54.5444,101.3,10,1,11.97
315,Sovetskaya Gavan,RU,2021-07-22 14:01:52,48.9723,140.2878,68.52,96,98,3.56
316,Turukhansk,RU,2021-07-22 14:01:52,65.8167,87.9833,61.34,96,100,12.21
317,Fortuna,US,2021-07-22 14:01:52,40.5982,-124.1573,54.93,92,90,1.01
318,Brownwood,US,2021-07-22 14:01:52,31.7093,-98.9912,76.55,65,0,4.54
319,Saint-Francois,FR,2021-07-22 14:01:52,46.4154,3.9054,85.48,50,0,5.75
320,Neiafu,TO,2021-07-22 14:01:52,-18.65,-173.9833,77.65,79,100,14.76
321,Kathmandu,NP,2021-07-22 13:59:55,27.7167,85.3167,75.42,88,75,4.61
322,Whitianga,NZ,2021-07-22 14:01:53,-36.8333,175.7,47.01,92,24,4.5
323,Sterling,US,2021-07-22 14:01:53,39.0062,-77.4286,77.31,58,75,1.01
324,Souillac,MU,2021-07-22 14:01:53,-20.5167,57.5167,72.36,74,24,16.6
325,Kununurra,AU,2021-07-22 14:01:53,-15.7667,128.7333,62.58,55,25,0.0
326,Panama City,PA,2021-07-22 13:59:24,8.9936,-79.5197,83.43,83,20,4.61
327,Uppsala,SE,2021-07-22 13:58:59,60.0,17.75,80.04,40,75,11.5
328,Ibra,OM,2021-07-22 14:01:54,22.6906,58.5334,80.92,62,80,14.32
329,Nichinan,JP,2021-07-22 14:01:54,31.6,131.3667,77.18,92,100,13.78
330,Kailua,US,2021-07-22 14:01:54,21.4022,-157.7394,78.03,78,75,11.5
331,Bengkulu,ID,2021-07-22 14:01:55,-3.8004,102.2655,77.74,80,29,2.89
332,Nuuk,GL,2021-07-22 14:01:55,64.1835,-51.7216,48.81,87,90,28.77
333,Eningen,DE,2021-07-22 14:01:23,48.4869,9.2595,80.73,59,13,2.89
334,Richards Bay,ZA,2021-07-22 14:01:56,-28.783,32.0377,64.15,40,2,11.39
335,Rovaniemi,FI,2021-07-22 14:01:56,66.5,25.7167,62.01,44,0,11.5
336,Itambe,BR,2021-07-22 14:01:57,-15.245,-40.6244,71.89,62,100,5.84
337,Kahului,US,2021-07-22 14:01:42,20.8947,-156.47,71.96,94,40,13.62
338,Camana,PE,2021-07-22 14:01:57,-16.6228,-72.7111,63.52,76,56,6.11
339,Muros,ES,2021-07-22 14:01:57,42.7762,-9.0603,75.99,83,100,6.26
340,Gravdal,NO,2021-07-22 14:01:16,68.1214,13.5031,49.89,93,75,10.36
341,Eydhafushi,MV,2021-07-22 14:01:58,5.1033,73.0708,83.03,76,100,15.99
342,Qui Nhon,VN,2021-07-22 13:57:41,13.7667,109.2333,84.0,69,100,13.78
343,Ahipara,NZ,2021-07-22 14:01:58,-35.1667,173.1667,53.44,86,1,4.52
344,Balabac,PH,2021-07-22 14:01:58,7.9868,117.0645,83.23,82,61,14.12
345,Nouadhibou,MR,2021-07-22 14:00:26,20.931,-17.0347,68.4,86,1,25.95
346,Singaraja,ID,2021-07-22 14:01:59,-8.112,115.0882,78.94,80,18,3.36
347,Komsomolskiy,UZ,2021-07-22 14:01:59,40.4272,71.7189,95.72,14,6,6.91
348,Yulara,AU,2021-07-22 14:01:59,-25.2406,130.9889,56.21,46,3,10.71
349,Yining,CN,2021-07-22 14:01:59,29.0361,114.5636,75.69,86,95,3.27
350,Bethel,US,2021-07-22 14:02:00,41.3712,-73.414,75.56,74,97,1.99
351,Port-Gentil,GA,2021-07-22 14:01:14,-0.7193,8.7815,75.11,77,65,11.12
352,Havre-Saint-Pierre,CA,2021-07-22 14:02:00,50.2334,-63.5986,61.16,77,90,5.75
353,Baijiantan,CN,2021-07-22 14:02:00,45.6333,85.1833,90.09,21,100,17.0
354,Meulaboh,ID,2021-07-22 14:02:01,4.1363,96.1285,80.26,78,100,1.23
355,Guanica,PR,2021-07-22 14:02:01,17.9716,-66.908,88.25,67,12,11.99
356,Havelock,US,2021-07-22 14:02:01,34.8791,-76.9013,83.05,83,4,1.99
357,Dunedin,NZ,2021-07-22 13:59:32,-45.8742,170.5036,43.81,76,0,1.01
358,Emba,KZ,2021-07-22 14:02:02,48.8264,58.1442,92.14,25,83,15.21
359,Russell,US,2021-07-22 14:02:02,32.3502,-85.1999,82.51,89,90,0.0
360,Yar-Sale,RU,2021-07-22 14:02:02,66.8333,70.8333,57.85,49,1,18.41
361,Lufilufi,WS,2021-07-22 14:02:02,-13.8745,-171.5986,81.1,79,29,20.15
362,Kenai,US,2021-07-22 14:02:02,60.5544,-151.2583,54.14,93,100,10.67
363,Lata,PT,2021-07-22 14:02:03,40.1629,-8.3327,81.48,48,1,11.16
364,Mastic Beach,US,2021-07-22 14:02:03,40.7668,-72.8521,77.11,67,1,4.0
365,Tessalit,ML,2021-07-22 14:02:03,20.1986,1.0114,104.74,18,7,8.84
366,Ipixuna,BR,2021-07-22 14:02:03,-1.7625,-48.8043,84.15,52,43,5.06
367,Tommot,RU,2021-07-22 14:02:04,58.9564,126.2925,60.35,95,92,3.22
368,Breyten,ZA,2021-07-22 14:02:04,-26.3018,29.987,47.82,21,0,11.65
369,Sovetskiy,RU,2021-07-22 14:02:05,61.3614,63.5842,61.27,85,100,4.99
370,Zhezkazgan,KZ,2021-07-22 14:02:05,47.8043,67.7144,86.67,21,0,16.71
371,Syracuse,IT,2021-07-22 14:00:00,37.0881,15.2792,94.44,58,0,8.72
372,Tamale,GH,2021-07-22 14:02:06,9.4008,-0.8393,91.06,44,66,7.2
373,Penon Blanco,MX,2021-07-22 14:02:06,24.7897,-104.0369,66.6,69,100,3.53
374,Vestmannaeyjar,IS,2021-07-22 14:02:06,63.4427,-20.2734,53.35,91,100,15.75
375,China,MX,2021-07-22 14:02:07,25.7,-99.2333,78.8,75,57,2.44
376,Roebourne,AU,2021-07-22 14:02:07,-20.7833,117.1333,75.16,36,6,11.61
377,Padang,ID,2021-07-22 13:52:18,-0.9492,100.3543,80.65,85,37,3.13
378,Zapolyarnyy,RU,2021-07-22 14:02:07,69.4154,30.8136,47.48,58,86,24.29
379,Eyl,SO,2021-07-22 14:02:07,7.9803,49.8164,87.06,55,80,25.39
380,Manokwari,ID,2021-07-22 13:58:05,-0.8667,134.0833,78.57,83,22,4.09
381,Gamboula,CF,2021-07-22 14:02:08,4.1178,15.1393,80.44,76,79,2.71
382,Houma,US,2021-07-22 13:58:17,29.5958,-90.7195,86.0,83,0,4.12
383,Fortuna Foothills,US,2021-07-22 14:02:08,32.6578,-114.4119,94.21,47,90,3.0
384,Umm Lajj,SA,2021-07-22 13:58:19,25.0213,37.2685,88.2,65,5,7.09
385,Sarkand,KZ,2021-07-22 14:02:09,45.41,79.9186,74.55,46,53,3.4
386,Neringa,LT,2021-07-22 14:02:09,55.3719,21.0647,73.49,70,27,12.1
387,Bereznik,RU,2021-07-22 14:02:09,62.8551,42.7072,59.79,60,90,8.88
388,Elko,US,2021-07-22 14:02:09,41.0002,-115.5012,70.05,42,68,1.99
389,Broome,US,2021-07-22 14:02:09,42.2506,-75.833,68.63,80,82,1.01
390,Buin,CL,2021-07-22 14:02:10,-33.7333,-70.75,48.24,32,100,0.58
391,Paamiut,GL,2021-07-22 14:02:10,61.994,-49.6678,43.7,84,97,13.4
392,Kerchevskiy,RU,2021-07-22 14:02:10,59.946,56.2884,58.12,96,100,3.18
393,Winnemucca,US,2021-07-22 14:02:10,40.973,-117.7357,75.51,13,50,2.8
394,Egvekinot,RU,2021-07-22 14:02:10,66.3167,-179.1667,38.62,92,100,5.3
395,Sayyan,YE,2021-07-22 14:02:11,15.1718,44.3244,63.28,75,83,7.23
396,Kanbe,MM,2021-07-22 14:02:11,16.7053,96.0017,78.85,88,100,11.74
397,Coihaique,CL,2021-07-22 14:02:11,-45.5752,-72.0662,43.93,96,100,5.48
398,Berlevag,NO,2021-07-22 14:02:11,70.8578,29.0864,46.35,71,40,28.77
399,Oktyabrskiy,RU,2021-07-22 14:02:12,54.4815,53.471,68.7,76,89,16.49
400,Nanortalik,GL,2021-07-22 14:02:12,60.1432,-45.2371,43.9,89,55,13.78
401,Monclova,MX,2021-07-22 14:02:12,26.9,-101.4167,81.05,68,98,5.12
402,Vila Do Maio,CV,2021-07-22 14:02:12,15.1333,-23.2167,86.79,89,22,11.88
403,Inirida,CO,2021-07-22 14:02:13,3.8653,-67.9239,75.11,96,96,3.13
404,Konotop,UA,2021-07-22 14:02:13,51.2403,33.2026,73.18,39,5,12.95
405,Kendal,GB,2021-07-22 14:00:15,54.3268,-2.7476,83.79,61,25,0.96
406,Zeya,RU,2021-07-22 14:02:13,53.75,127.2667,74.19,94,100,3.6
407,Lavrentiya,RU,2021-07-22 14:02:13,65.5833,-171.0,36.88,95,100,5.06
408,Xuddur,SO,2021-07-22 14:02:14,4.1213,43.8894,87.3,36,91,23.69
409,Kande,TG,2021-07-22 14:02:14,9.9578,1.0447,84.56,60,99,7.16
410,Estelle,US,2021-07-22 14:02:14,29.8458,-90.1067,87.01,73,75,1.99
411,Chicama,PE,2021-07-22 14:02:08,-7.8447,-79.1469,67.1,73,39,5.37
412,Ankazoabo,MG,2021-07-22 14:02:15,-22.2833,44.5167,82.65,28,27,4.45
413,Tighina,MD,2021-07-22 14:02:16,46.8306,29.4711,77.77,45,0,17.38
414,Sivas,TR,2021-07-22 13:58:56,39.7916,37.0019,77.13,42,22,19.8
415,Zhangjiakou,CN,2021-07-22 14:01:23,40.81,114.8794,67.03,84,87,6.44
416,Progreso,MX,2021-07-22 14:02:16,21.2833,-89.6667,83.1,76,7,11.07
417,Shimoda,JP,2021-07-22 14:02:16,34.6667,138.95,74.1,85,31,2.42
418,Mongoumba,CF,2021-07-22 14:02:17,3.6415,18.5936,83.48,60,100,2.28
419,San Carlos,VE,2021-07-22 14:02:17,9.6612,-68.5827,78.42,87,93,1.52
420,Beboto,TD,2021-07-22 14:02:17,8.2668,16.939,77.41,80,100,2.8
421,Edeia,BR,2021-07-22 14:02:17,-17.3383,-49.9314,84.0,28,0,10.85
422,Atasu,KZ,2021-07-22 14:02:17,48.6814,71.6433,80.22,36,68,14.05
423,Balaipungut,ID,2021-07-22 14:02:18,1.05,101.2833,84.61,65,82,2.8
424,Kjollefjord,NO,2021-07-22 14:02:18,70.9457,27.3465,46.18,74,99,26.26
425,Hasaki,JP,2021-07-22 14:02:18,35.7333,140.8333,77.29,86,100,6.46
426,Juba,SS,2021-07-22 14:02:18,4.8517,31.5825,88.95,44,96,3.24
427,Gazli,UZ,2021-07-22 14:02:19,40.1333,63.45,100.29,10,0,10.58
428,Launceston,AU,2021-07-22 14:02:19,-41.45,147.1667,49.8,89,75,9.22
429,Omboue,GA,2021-07-22 14:00:12,-1.5746,9.2618,76.69,70,86,9.33
430,Kirkwall,GB,2021-07-22 14:00:21,58.9848,-2.9587,59.34,82,75,9.22
431,Kurumkan,RU,2021-07-22 14:02:19,54.3,110.3,63.52,76,0,3.67
432,Ahuimanu,US,2021-07-22 14:02:20,21.4447,-157.8378,77.76,77,75,11.5
433,Cascais,PT,2021-07-22 13:57:25,38.6979,-9.4215,81.75,58,20,1.99
434,Sioux Lookout,CA,2021-07-22 14:02:20,50.1001,-91.917,62.98,50,30,6.76
435,Varhaug,NO,2021-07-22 14:02:20,58.6147,5.6457,64.85,76,82,22.53
436,Bowen,AU,2021-07-22 14:02:20,-20.0167,148.2333,62.6,71,0,7.0
437,Cocula,MX,2021-07-22 14:02:21,20.3652,-103.8222,64.13,79,89,2.37
438,Ruteng,ID,2021-07-22 14:02:21,-8.6136,120.4721,62.13,93,71,1.28
439,Dawlatabad,AF,2021-07-22 14:02:21,36.4141,64.9053,101.44,10,68,10.33
440,Bakloh,IN,2021-07-22 14:02:21,32.4667,75.9167,73.26,84,9,1.01
441,Caravelas,BR,2021-07-22 14:02:21,-17.7125,-39.2481,77.34,57,57,8.84
442,Lasa,IT,2021-07-22 14:02:21,46.6166,10.7002,79.54,61,35,1.68
443,Sulangan,PH,2021-07-22 14:02:22,11.1373,123.7228,83.88,73,100,23.91
444,Avera,US,2021-07-22 14:02:22,33.194,-82.5271,83.91,76,6,3.98
445,Lumby,CA,2021-07-22 14:02:22,50.2498,-118.969,59.9,64,0,2.75
446,Labuan,MY,2021-07-22 14:02:22,5.2767,115.2417,82.56,78,100,8.57
447,Matagami,CA,2021-07-22 14:02:22,49.7502,-77.6328,53.71,94,90,3.44
448,Taksimo,RU,2021-07-22 14:02:23,56.3444,114.8794,60.01,95,99,0.58
449,Revelstoke,CA,2021-07-22 14:02:23,50.9832,-118.2023,56.1,60,0,2.95
450,Vermilion,US,2021-07-22 14:02:24,40.1667,-87.7506,76.23,90,87,3.78
451,Praya,CV,2021-07-22 14:01:12,14.9215,-23.5087,79.81,79,34,7.78
452,Edendale,ZA,2021-07-22 14:02:24,-29.6528,30.3147,57.63,16,0,10.25
453,Arlit,NE,2021-07-22 14:02:25,18.7369,7.3853,104.88,21,51,4.97
454,Atyashevo,RU,2021-07-22 14:02:25,54.5644,46.0691,68.0,65,9,10.33
455,Lapua,FI,2021-07-22 14:02:25,62.9693,23.0088,64.47,58,99,7.43
456,Kloulklubed,PW,2021-07-22 14:02:25,7.0419,134.2556,85.03,75,64,16.02
457,Port-Cartier,CA,2021-07-22 14:02:26,50.0334,-66.8654,59.11,80,100,1.36
458,The Valley,AI,2021-07-22 14:02:26,18.217,-63.0578,83.1,78,79,20.2
459,Varkaus,FI,2021-07-22 14:02:26,62.3153,27.873,64.31,55,99,10.13
460,Xining,CN,2021-07-22 14:01:20,36.6167,101.7667,69.67,62,99,2.1
461,Tsumeb,NA,2021-07-22 14:02:26,-19.2333,17.7167,72.64,16,0,11.25
462,Zacatepec,MX,2021-07-22 14:02:26,18.65,-99.2,72.64,90,93,0.74
463,Khash,IR,2021-07-22 14:02:27,28.2211,61.2158,91.98,9,0,23.2
464,Rudnogorsk,RU,2021-07-22 14:02:27,57.2639,103.7519,57.06,93,1,3.6
465,Kodinsk,RU,2021-07-22 14:02:27,58.6881,99.1844,57.81,96,98,3.09
466,Mount Gambier,AU,2021-07-22 14:02:27,-37.8333,140.7667,40.91,100,90,11.5
467,Port Blair,IN,2021-07-22 14:02:28,11.6667,92.75,82.54,85,98,21.36
468,Mawlamyine,MM,2021-07-22 14:01:49,16.4914,97.6256,79.61,90,100,15.05
469,Bud,US,2021-07-22 14:02:28,39.447,-86.1758,73.83,75,54,5.37
470,Ust-Tsilma,RU,2021-07-22 14:02:28,65.441,52.1498,57.87,51,100,6.71
471,Conceicao Do Araguaia,BR,2021-07-22 14:02:28,-8.2578,-49.2647,92.93,26,6,11.54
472,Carutapera,BR,2021-07-22 14:02:28,-1.195,-46.02,83.88,69,67,9.75
473,Trofors,NO,2021-07-22 14:02:29,65.5333,13.4063,53.47,83,100,5.5
474,Rio Claro,BR,2021-07-22 14:01:22,-22.4114,-47.5614,64.8,21,0,4.14
475,Dzilam Gonzalez,MX,2021-07-22 14:02:29,21.2833,-88.9333,83.53,72,18,7.07
476,Whyalla,AU,2021-07-22 14:00:32,-33.0333,137.5833,48.09,100,75,9.22
477,Rottingdean,GB,2021-07-22 14:02:29,50.8098,-0.0594,86.99,66,1,1.99
478,Hammerfest,NO,2021-07-22 14:02:30,70.6634,23.6821,46.13,87,75,3.44
479,Nelson Bay,AU,2021-07-22 14:02:30,-32.7167,152.15,55.09,88,100,1.01
480,Vila Velha,BR,2021-07-22 14:00:30,-20.3297,-40.2925,67.95,70,84,6.38
481,Consolacion Del Sur,CU,2021-07-22 14:02:30,22.5047,-83.5136,86.52,61,1,5.19
482,Swan River,CA,2021-07-22 13:59:37,52.1058,-101.2676,66.09,100,98,1.14
483,Santa Ana,US,2021-07-22 13:59:32,33.7456,-117.8678,75.47,86,100,1.01
484,Kaeo,NZ,2021-07-22 14:02:31,-35.1,173.7833,49.32,95,12,3.76
485,Awbari,LY,2021-07-22 14:02:31,26.5921,12.7805,99.61,12,0,9.46
486,Voi,KE,2021-07-22 14:02:31,-3.3945,38.563,80.17,49,66,16.22
487,Longyan,CN,2021-07-22 14:02:32,25.1072,117.0225,76.53,78,49,1.01
488,Banjar,ID,2021-07-22 14:02:32,-8.19,114.9675,80.46,87,12,4.05
489,Mangrol,IN,2021-07-22 14:02:32,21.1167,70.1167,83.28,85,100,20.09
490,Xilagani,GR,2021-07-22 14:02:33,40.9833,25.4167,85.39,33,99,11.34
491,Tautira,PF,2021-07-22 14:02:33,-17.7333,-149.15,73.42,70,5,11.83
492,Deputatskiy,RU,2021-07-22 14:02:33,69.3,139.9,46.6,83,65,2.28
493,General Roca,AR,2021-07-22 14:02:33,-39.0333,-67.5833,58.21,31,100,3.04
494,Ossora,RU,2021-07-22 14:02:34,59.2353,163.0719,55.24,81,97,2.17
495,Bambui,BR,2021-07-22 14:02:34,-20.0064,-45.9769,76.08,39,0,5.32
496,Hoquiam,US,2021-07-22 14:02:04,46.9809,-123.8893,56.93,66,1,3.44
497,Nemuro,JP,2021-07-22 13:59:26,43.3236,145.575,62.65,91,99,10.58
498,Walvis Bay,NA,2021-07-22 14:02:35,-22.9575,14.5053,65.08,39,0,19.35
499,Gondanglegi,ID,2021-07-22 14:02:35,-7.7479,112.0132,75.0,80,30,12.15
500,Manggar,ID,2021-07-22 13:57:41,-2.8833,108.2667,81.79,81,30,9.22
501,Yerbogachen,RU,2021-07-22 14:02:35,61.2767,108.0108,61.3,79,100,4.32
502,Moose Factory,CA,2021-07-22 14:02:36,51.2585,-80.6094,62.71,76,97,4.68
503,Khandyga,RU,2021-07-22 14:02:36,62.6667,135.6,61.97,92,97,3.11
504,Labuhan,ID,2021-07-22 14:02:36,-6.8844,112.2051,80.2,74,88,9.19
505,Kamaishi,JP,2021-07-22 14:02:36,39.2667,141.8833,72.52,97,100,4.97
506,Iskateley,RU,2021-07-22 14:02:36,67.6803,53.1512,54.18,74,86,13.35
507,Zhuanghe,CN,2021-07-22 14:02:36,39.7008,122.9911,74.82,81,97,2.55
508,Anito,PH,2021-07-22 14:02:37,12.4497,125.2886,81.45,76,100,14.47
509,Uitenhage,ZA,2021-07-22 14:02:37,-33.7576,25.3971,47.41,75,100,17.87
510,Cetraro,IT,2021-07-22 14:02:37,39.5166,15.9416,92.25,66,32,5.53
511,Smolyaninovo,RU,2021-07-22 14:02:37,43.2956,132.4675,74.66,97,86,1.63
512,Sur,OM,2021-07-22 14:00:18,22.5667,59.5289,94.01,57,2,3.11
513,Ajdabiya,LY,2021-07-22 14:02:38,30.7554,20.2263,85.98,52,2,20.83
514,Catio,GW,2021-07-22 14:02:38,11.2833,-15.25,86.67,62,99,12.28
515,Colesberg,ZA,2021-07-22 14:02:38,-30.72,25.0972,42.66,31,25,15.43
516,Caborca,MX,2021-07-22 14:02:38,30.5838,-111.101,77.49,71,50,5.17
517,Kabansk,RU,2021-07-22 14:02:39,52.0486,106.6528,68.49,85,9,4.79
518,Erenhot,CN,2021-07-22 14:02:39,43.6475,111.9767,83.32,44,100,12.17
519,Astoria,US,2021-07-22 14:02:39,46.1879,-123.8313,56.86,93,1,3.44
520,Panzhihua,CN,2021-07-22 14:01:06,26.5851,101.7128,73.81,83,16,0.89
521,Nacala,MZ,2021-07-22 14:01:52,-14.5428,40.6728,79.84,57,10,9.69
522,Willowmore,ZA,2021-07-22 14:02:39,-33.2926,23.4895,38.16,84,85,13.78
523,Igarka,RU,2021-07-22 14:02:40,67.4667,86.5833,60.67,96,100,16.26
524,Condega,NI,2021-07-22 14:02:40,13.365,-86.3985,76.03,74,54,11.9
525,Acarau,BR,2021-07-22 14:02:40,-2.8856,-40.12,87.51,50,98,15.28
526,Parabel,RU,2021-07-22 14:02:40,58.6978,81.4825,72.66,59,100,6.53
527,Sao Bernardo,BR,2021-07-22 14:02:40,-3.3614,-42.4178,89.42,41,75,7.49
528,Scarborough,GB,2021-07-22 14:00:50,54.2797,-0.4044,78.66,72,13,1.99
529,Mandalgovi,MN,2021-07-22 14:02:41,45.7625,106.2708,69.31,50,50,10.83
530,Suriapet,IN,2021-07-22 14:02:41,17.15,79.6167,73.65,94,100,16.67
531,Maceio,BR,2021-07-22 13:58:20,-9.6658,-35.7353,81.84,61,75,13.8
532,Laela,TZ,2021-07-22 14:02:41,-8.5667,32.05,78.53,27,17,6.98
533,Kaitong,CN,2021-07-22 14:02:41,44.8135,123.15,76.8,72,20,9.04
534,Puqi,CN,2021-07-22 14:02:42,29.7167,113.8833,78.44,82,61,6.2
535,Trinidad,BO,2021-07-22 14:02:42,-14.8333,-64.9,80.1,32,0,3.27
536,Alekseyevka,RU,2021-07-22 14:02:42,50.6309,38.6903,74.53,48,100,11.99
537,Bairiki,KI,2021-07-22 14:02:43,1.3292,172.9752,82.29,77,20,12.91
538,Erzin,TR,2021-07-22 14:02:06,36.9559,36.2,93.72,71,46,12.17
539,Umm Kaddadah,SD,2021-07-22 14:02:43,13.6017,26.6876,89.01,41,97,12.88
540,Buraydah,SA,2021-07-22 14:02:44,26.326,43.975,111.6,8,96,15.03
541,Bintulu,MY,2021-07-22 14:02:44,3.1667,113.0333,80.46,78,100,3.33
542,High Prairie,CA,2021-07-22 14:02:44,55.4334,-116.4858,51.17,86,83,8.57
543,Grand-Lahou,CI,2021-07-22 14:02:44,5.1367,-5.0242,80.13,73,68,9.98
544,Palmer,US,2021-07-22 14:02:45,42.1584,-72.3287,75.43,62,20,1.01
545,El Doncello,CO,2021-07-22 14:02:45,1.6782,-75.2847,69.19,98,100,2.37
546,Karratha,AU,2021-07-22 14:02:45,-20.7377,116.8463,74.62,36,6,11.12
547,Khasan,RU,2021-07-22 14:02:45,42.4308,130.6434,75.49,90,100,4.05
548,Lugazi,UG,2021-07-22 14:02:45,0.3772,32.9197,78.48,42,41,6.91
549,Porbandar,IN,2021-07-22 14:02:46,21.6422,69.6093,83.64,85,91,18.75
550,Fort-Shevchenko,KZ,2021-07-22 14:02:46,44.5086,50.263,90.18,45,6,10.65
551,Jinxiang,CN,2021-07-22 14:02:46,27.4327,120.6062,79.0,90,66,15.3
552,Alekseyevsk,RU,2021-07-22 14:02:47,57.8406,108.3492,62.31,98,73,4.34
553,Yumen,CN,2021-07-22 14:02:47,40.2833,97.2,89.91,25,52,13.51
554,Grants,US,2021-07-22 14:02:47,35.1473,-107.8514,66.43,72,1,0.0
555,Faxinal,BR,2021-07-22 14:02:47,-24.0003,-51.3194,67.42,31,0,4.61
556,Marsa Matruh,EG,2021-07-22 13:58:12,31.3525,27.2453,86.2,66,0,11.5
557,Araouane,ML,2021-07-22 14:02:48,18.9048,-3.5265,107.37,17,8,15.28
558,Maniwaki,CA,2021-07-22 14:02:48,46.3834,-75.966,68.0,51,9,6.33
559,Laguna,US,2021-07-22 14:02:48,38.421,-121.4238,73.2,73,1,1.99
560,Nalut,LY,2021-07-22 14:02:48,30.3333,10.85,96.55,14,0,16.31
561,Emerald,AU,2021-07-22 14:02:48,-23.5333,148.1667,55.98,30,0,10.38
562,Chahuites,MX,2021-07-22 14:02:48,16.2833,-94.1833,81.95,73,11,4.76
563,Liwale,TZ,2021-07-22 14:02:49,-9.7667,37.9333,87.48,25,14,7.85
564,Vulturu,RO,2021-07-22 14:02:49,45.6167,27.4167,80.17,41,25,20.8
565,Namyslow,PL,2021-07-22 14:01:29,51.0759,17.7228,75.65,47,58,3.91
566,Warrnambool,AU,2021-07-22 14:02:49,-38.3833,142.4833,47.8,81,100,13.31
567,Osoyoos,CA,2021-07-22 14:02:49,49.0331,-119.4524,58.33,52,0,4.68
568,Gamba,GA,2021-07-22 14:02:40,-2.65,10.0,75.52,71,57,9.06
569,Puerto Escondido,MX,2021-07-22 14:02:50,15.85,-97.0667,82.53,67,47,2.93
570,Elat,IL,2021-07-22 14:01:00,29.5581,34.9482,101.32,19,0,13.15
571,Touba,CI,2021-07-22 14:02:50,8.2833,-7.6833,80.42,73,97,5.77
572,Mayo,US,2021-07-22 14:02:50,38.8876,-76.5119,77.74,62,1,8.99
573,Saint Simons,US,2021-07-22 14:02:51,31.1352,-81.3901,83.05,84,90,8.05
574,Sakaiminato,JP,2021-07-22 13:58:06,35.55,133.2333,80.58,83,75,11.5
575,Hualmay,PE,2021-07-22 14:02:51,-11.0964,-77.6139,64.6,78,42,7.81
576,Kiunga,PG,2021-07-22 14:02:51,-6.1219,141.2906,73.09,99,99,3.06
577,Provideniya,RU,2021-07-22 14:02:52,64.3833,-173.3,43.18,76,100,3.15
578,Lillehammer,NO,2021-07-22 14:02:52,61.1146,10.4674,83.32,28,43,3.62
579,Verkh-Usugli,RU,2021-07-22 14:02:52,52.7,115.1667,62.42,99,100,1.16
580,Churapcha,RU,2021-07-22 14:02:53,62.0025,132.4325,61.92,75,0,2.28
581,Iranshahr,IR,2021-07-22 14:02:53,27.2025,60.6848,105.19,8,0,15.95
582,Raga,SS,2021-07-22 14:02:54,8.4596,25.678,76.95,75,100,1.99
583,Coquimbo,CL,2021-07-22 14:02:54,-29.9533,-71.3436,56.64,72,49,3.51
584,Starokamyshinsk,RU,2021-07-22 14:02:54,55.0554,61.6031,86.76,50,4,8.39
585,Laramie,US,2021-07-22 14:02:54,41.3114,-105.5911,75.25,67,1,3.44
586,Krasnoselkup,RU,2021-07-22 14:02:54,65.7,82.4667,65.3,75,71,7.27
587,Plettenberg Bay,ZA,2021-07-22 14:00:53,-34.0527,23.3716,48.07,83,100,12.37
588,San Antonio La Isla,MX,2021-07-22 14:02:55,19.1611,-99.5708,58.95,83,66,1.23
589,Sabzevar,IR,2021-07-22 14:02:55,36.2126,57.6819,96.84,9,63,7.47
590,Christchurch,NZ,2021-07-22 14:02:55,-43.5333,172.6333,45.0,92,75,2.3
591,Kresna,BG,2021-07-22 14:02:55,41.7333,23.15,86.36,29,16,7.43
592,Hohhot,CN,2021-07-22 14:02:29,40.8106,111.6522,73.71,67,98,7.49
593,Cerro De Pasco,PE,2021-07-22 14:02:56,-10.6833,-76.2667,39.52,54,8,5.7
594,Naze,JP,2021-07-22 14:02:56,28.3667,129.4833,76.33,91,100,27.38
595,Saint-Pierre,RE,2021-07-22 14:02:56,-21.3393,55.4781,73.08,68,0,0.0
596,Usinsk,RU,2021-07-22 14:02:56,65.9939,57.5281,56.41,45,99,14.0
597,Ode,NG,2021-07-22 14:02:56,7.7899,5.7117,78.58,70,100,7.7
598,Anadyr,RU,2021-07-22 14:00:57,64.75,177.4833,46.0,87,89,5.99
599,Yuksekova,TR,2021-07-22 14:02:57,37.5736,44.2872,87.31,12,0,12.03
600,Rawson,AR,2021-07-22 14:02:57,-43.3002,-65.1023,54.59,44,100,7.43
601,Douglas,US,2021-07-22 14:02:57,41.3,-96.167,76.98,76,1,7.0
602,Kyrylivka,UA,2021-07-22 14:02:58,46.3759,35.3675,72.79,79,85,21.94
603,Waitara,NZ,2021-07-22 14:02:58,-38.925,174.25,49.71,79,90,14.07
604,Vestmanna,FO,2021-07-22 14:02:58,62.1564,-7.1664,52.72,100,17,11.5
605,Semey,KZ,2021-07-22 14:00:03,50.4111,80.2275,82.62,39,0,13.42
606,Santa Lucia,ES,2021-07-22 14:02:58,27.9117,-15.5407,72.72,50,20,33.38
607,Shubarshi,KZ,2021-07-22 14:02:58,48.5872,57.1869,92.61,24,82,9.98
608,Hohen Neuendorf,DE,2021-07-22 14:02:59,52.6667,13.2833,76.05,63,69,1.01
609,Tazmalt,DZ,2021-07-22 14:02:59,36.3868,4.3989,104.45,12,0,6.87
610,Hvide Sande,DK,2021-07-22 14:00:12,56.0045,8.1294,72.68,83,100,16.71
611,Wilmington,US,2021-07-22 13:59:13,34.2257,-77.9447,84.96,77,1,4.68
612,Ranong,TH,2021-07-22 14:03:00,9.9658,98.6348,79.61,89,100,12.75
613,Samana,DO,2021-07-22 14:03:00,19.2056,-69.3369,82.38,76,40,8.39
614,Faya,SA,2021-07-22 14:03:00,18.3851,42.4509,64.18,85,85,10.02
615,Daru,PG,2021-07-22 14:03:01,-9.0763,143.2092,76.98,78,100,13.49
616,Gazojak,TM,2021-07-22 14:03:01,41.1875,61.4036,99.79,10,0,12.01
617,Aberdeen,GB,2021-07-22 14:01:06,57.1437,-2.0981,75.49,94,90,6.91
618,Ftelia,GR,2021-07-22 14:03:02,41.0833,24.1833,89.4,35,83,8.61
619,Lufkin,US,2021-07-22 14:03:02,31.3382,-94.7291,79.23,88,1,3.44
620,Wamba,NG,2021-07-22 14:03:03,8.9333,8.6,78.94,79,98,5.7
621,Susanville,US,2021-07-22 14:03:03,40.4163,-120.653,56.08,30,0,3.0
622,Mercedes,AR,2021-07-22 13:58:33,-34.6515,-59.4307,55.51,65,100,9.57
623,Villacarrillo,ES,2021-07-22 14:03:03,38.1156,-3.0848,100.42,9,0,8.68
624,Mims,US,2021-07-22 14:03:03,28.6653,-80.8448,89.6,78,1,3.0
625,Ventspils,LV,2021-07-22 14:00:50,57.3894,21.5606,75.13,69,0,12.66
626,Paita,PE,2021-07-22 14:03:04,-5.0892,-81.1144,67.3,76,11,11.12
627,Nyurba,RU,2021-07-22 14:03:04,63.2842,118.3319,65.14,73,100,2.59
628,Acapulco,MX,2021-07-22 14:03:04,16.8634,-99.8901,81.27,75,31,2.73
629,Puerto El Triunfo,SV,2021-07-22 14:03:05,13.2833,-88.55,84.36,57,17,6.31
630,Wyndham,US,2021-07-22 14:03:05,37.6985,-77.6125,78.13,65,75,5.01
631,Nyangao,TZ,2021-07-22 14:03:05,-10.3333,39.2833,84.78,40,58,8.23
632,Huarmey,PE,2021-07-22 14:03:05,-10.0681,-78.1522,65.61,77,50,6.35
633,Kankon,IN,2021-07-22 14:03:06,15.0167,74.0167,76.14,92,100,10.65
634,Kankaanpaa,FI,2021-07-22 14:03:06,61.8,22.4167,65.8,55,84,14.85
635,La Ronge,CA,2021-07-22 14:03:06,55.1001,-105.2842,65.08,84,39,11.7
636,Hervey Bay,AU,2021-07-22 14:03:06,-25.2986,152.8535,51.04,72,6,5.26
637,Genhe,CN,2021-07-22 14:03:07,50.7833,121.5167,67.82,90,40,4.36
638,Poum,NC,2021-07-22 14:03:07,-20.2333,164.0167,70.99,73,19,13.47
639,Guerrero Negro,MX,2021-07-22 14:03:07,27.9769,-114.0611,69.42,85,6,7.92
640,Kerema,PG,2021-07-22 14:03:07,-7.9631,145.7785,77.63,90,100,10.87
641,Correia Pinto,BR,2021-07-22 14:03:07,-27.5847,-50.3611,63.81,39,0,3.44
642,Balikpapan,ID,2021-07-22 14:00:19,-1.2675,116.8289,77.59,86,88,7.94
643,Nsukka,NG,2021-07-22 14:03:08,6.8561,7.3927,76.78,75,100,6.46
644,Swellendam,ZA,2021-07-22 14:03:08,-34.0226,20.4417,46.72,86,95,3.96
645,Gizycko,PL,2021-07-22 14:01:19,54.0381,21.7644,68.86,67,97,6.06
646,Santa Cruz,BO,2021-07-22 13:58:52,-17.8,-63.1667,71.06,52,0,3.44
647,Key West,US,2021-07-22 14:03:09,24.5557,-81.7826,89.6,66,40,3.44
648,Port Hedland,AU,2021-07-22 14:03:09,-20.3167,118.5667,69.85,88,72,9.22
649,Jumla,NP,2021-07-22 14:03:09,29.2747,82.1838,65.12,95,97,1.19
650,Huilong,CN,2021-07-22 14:03:09,31.8111,121.655,81.99,85,10,15.52
651,San Gabriel,US,2021-07-22 14:03:10,34.0961,-118.1058,78.19,69,1,0.0
652,Bethel Park,US,2021-07-22 14:00:33,40.3276,-80.0395,68.45,84,100,1.01
653,Itarema,BR,2021-07-22 14:03:11,-2.9248,-39.9167,87.67,48,88,16.06
654,Comodoro Rivadavia,AR,2021-07-22 13:59:42,-45.8667,-67.5,55.26,50,0,12.66
655,Sri Aman,MY,2021-07-22 14:03:11,1.2376,111.4621,76.75,83,78,1.01
656,College,US,2021-07-22 14:03:11,64.8569,-147.8028,61.0,69,93,1.7
657,Flinders,AU,2021-07-22 14:03:12,-34.5833,150.8552,54.21,75,100,5.01
658,Lonavale,IN,2021-07-22 14:03:12,18.75,73.4167,75.24,94,100,8.63
659,Peno,RU,2021-07-22 14:03:13,56.9262,32.7426,69.57,43,63,10.71
660,Shakiso,ET,2021-07-22 14:03:13,5.75,38.9167,71.76,52,97,7.36
661,Traverse City,US,2021-07-22 14:03:13,44.7631,-85.6206,66.83,63,90,3.44
662,Tabuk,PH,2021-07-22 14:03:13,17.4189,121.4443,76.37,89,100,1.54
663,Chabahar,IR,2021-07-22 14:03:13,25.2919,60.643,92.43,66,9,13.56
664,Monteagudo,BO,2021-07-22 14:03:14,-19.8167,-63.9833,72.3,41,0,5.68
665,Catamarca,AR,2021-07-22 14:03:14,-28.4696,-65.7852,58.05,20,5,0.31
666,Moron,AR,2021-07-22 14:02:02,-34.6534,-58.6198,57.78,63,100,6.73
