City_ID,City,Country,Date,Lat,Lng,Max Temp,Humidity,Cloudiness,Wind Speed,Current Weather
0,Kamenka,RU,2021-07-22 16:50:50,51.3223,42.7678,66.85,70,96,7.74,overcast clouds
1,San Juan,AR,2021-07-22 16:50:50,-31.5375,-68.5364,68.63,15,74,2.24,broken clouds
2,Kodiak,US,2021-07-22 16:49:11,57.79,-152.4072,53.11,87,90,14.97,mist
3,Port Elizabeth,ZA,2021-07-22 16:50:36,-33.918,25.5701,46.69,87,75,23.02,heavy intensity shower rain
4,Rikitea,PF,2021-07-22 16:50:50,-23.1203,-134.9692,72.16,73,9,13.49,clear sky
5,Port Moresby,PG,2021-07-22 16:50:50,-9.4431,147.1797,72.82,94,75,5.75,broken clouds
6,Ushuaia,AR,2021-07-22 16:45:57,-54.8,-68.3,47.82,81,75,3.44,moderate rain
7,Yalta,UA,2021-07-22 16:50:51,44.5,34.1667,76.62,79,86,12.19,overcast clouds
8,Bud,US,2021-07-22 16:50:51,39.447,-86.1758,81.43,66,44,4.74,scattered clouds
9,Hermanus,ZA,2021-07-22 16:50:51,-34.4187,19.2345,49.89,69,54,8.12,broken clouds
10,Hilo,US,2021-07-22 16:47:04,19.7297,-155.09,73.13,91,90,5.75,light rain
11,Carnarvon,AU,2021-07-22 16:50:51,-24.8667,113.6333,55.47,69,1,5.75,clear sky
12,Aranda De Duero,ES,2021-07-22 16:50:52,41.6704,-3.6892,95.61,9,0,15.66,clear sky
13,Ostrovnoy,RU,2021-07-22 16:50:52,68.0531,39.5131,44.82,84,100,9.75,overcast clouds
14,Tazovskiy,RU,2021-07-22 16:50:52,67.4667,78.7,56.1,69,26,11.65,scattered clouds
15,Korla,CN,2021-07-22 16:50:52,41.7597,86.1469,88.63,20,92,5.01,overcast clouds
16,Vaini,TO,2021-07-22 16:50:52,-21.2,-175.2,69.96,94,20,3.44,few clouds
17,Aykhal,RU,2021-07-22 16:50:52,66.0,111.5,61.41,58,84,4.32,broken clouds
18,Sao Filipe,CV,2021-07-22 16:50:53,14.8961,-24.4956,76.05,87,47,10.16,scattered clouds
19,Dunedin,NZ,2021-07-22 16:50:53,-45.8742,170.5036,41.81,70,0,1.99,clear sky
20,Thompson,CA,2021-07-22 16:50:53,55.7435,-97.8558,73.56,60,1,8.05,smoke
21,Vostok,RU,2021-07-22 16:50:53,46.4856,135.8833,68.04,87,15,3.83,few clouds
22,Port Macquarie,AU,2021-07-22 16:50:53,-31.4333,152.9167,47.37,83,98,7.94,overcast clouds
23,Rocha,UY,2021-07-22 16:50:54,-34.4833,-54.3333,61.88,51,79,8.48,broken clouds
24,Mataura,NZ,2021-07-22 16:50:54,-46.1927,168.8643,40.48,97,9,2.89,clear sky
25,Martinsicuro,IT,2021-07-22 16:50:54,42.8811,13.9145,83.95,51,4,6.44,clear sky
26,Lubao,PH,2021-07-22 16:50:54,14.9167,120.55,78.15,94,100,8.9,heavy intensity rain
27,Sabha,LY,2021-07-22 16:50:54,27.0377,14.4283,95.92,16,0,11.86,clear sky
28,Ketchikan,US,2021-07-22 16:50:54,55.3422,-131.6461,55.87,88,90,9.22,light rain
29,Ambilobe,MG,2021-07-22 16:50:55,-13.2,49.05,67.17,62,1,3.62,clear sky
30,Ukiah,US,2021-07-22 16:50:55,39.1502,-123.2078,89.02,49,1,0.0,clear sky
31,Komsomolskiy,UZ,2021-07-22 16:50:55,40.4272,71.7189,88.52,29,30,4.61,scattered clouds
32,Georgetown,MY,2021-07-22 16:49:01,5.4112,100.3354,85.95,70,20,1.14,few clouds
33,Castro,BR,2021-07-22 16:50:55,-24.7911,-50.0119,66.92,35,0,6.29,clear sky
34,Kapaa,US,2021-07-22 16:50:56,22.0752,-159.319,75.52,85,75,1.99,broken clouds
35,Busselton,AU,2021-07-22 16:50:56,-33.65,115.3333,55.09,74,100,17.43,overcast clouds
36,Alofi,NU,2021-07-22 16:50:57,-19.0595,-169.9187,67.89,94,5,1.14,clear sky
37,Barbastro,ES,2021-07-22 16:50:57,42.0356,0.1269,98.73,17,0,15.5,clear sky
38,Maun,BW,2021-07-22 16:50:57,-19.9833,23.4167,67.96,12,0,3.44,clear sky
39,Ojinaga,MX,2021-07-22 16:50:58,29.5667,-104.4167,90.57,39,1,4.61,clear sky
40,Saint-Augustin,CA,2021-07-22 16:50:58,51.226,-58.6502,51.06,89,100,13.35,overcast clouds
41,Port Alfred,ZA,2021-07-22 16:50:12,-33.5906,26.891,51.84,73,100,24.9,light rain
42,Hithadhoo,MV,2021-07-22 16:50:58,-0.6,73.0833,80.13,80,100,12.62,moderate rain
43,Kruisfontein,ZA,2021-07-22 16:50:59,-34.0033,24.7314,43.88,74,100,16.53,light rain
44,Katsuura,JP,2021-07-22 16:50:59,35.1333,140.3,80.11,84,41,3.62,scattered clouds
45,Atuona,PF,2021-07-22 16:50:59,-9.8,-139.0333,77.31,73,100,12.86,overcast clouds
46,Ribeira Grande,PT,2021-07-22 16:50:59,38.5167,-28.7,75.6,60,40,11.5,scattered clouds
47,Cape Town,ZA,2021-07-22 16:50:59,-33.9258,18.4232,52.11,62,75,1.01,broken clouds
48,Bredasdorp,ZA,2021-07-22 16:51:00,-34.5322,20.0403,47.52,71,45,3.44,scattered clouds
49,Albany,US,2021-07-22 16:51:00,42.6001,-73.9662,79.03,54,86,1.01,overcast clouds
50,Kaitangata,NZ,2021-07-22 16:51:00,-46.2817,169.8464,40.93,81,7,5.82,clear sky
51,Batagay,RU,2021-07-22 16:51:00,67.6333,134.6333,51.15,80,5,2.53,clear sky
52,Sambava,MG,2021-07-22 16:51:01,-14.2667,50.1667,70.21,85,12,12.8,light rain
53,Gimbi,ET,2021-07-22 16:46:21,9.1667,35.8333,56.28,97,100,1.21,moderate rain
54,Fairbanks,US,2021-07-22 16:50:02,64.8378,-147.7164,64.74,71,75,0.0,smoke
55,Megion,RU,2021-07-22 16:49:04,61.0296,76.1136,59.02,68,79,6.8,broken clouds
56,Klaksvik,FO,2021-07-22 16:51:02,62.2266,-6.589,54.52,96,69,2.42,broken clouds
57,New Norfolk,AU,2021-07-22 16:51:02,-42.7826,147.0587,50.92,65,100,1.01,overcast clouds
58,Praia Da Vitoria,PT,2021-07-22 16:51:03,38.7333,-27.0667,74.75,60,40,14.94,scattered clouds
59,Pereslavl-Zalesskiy,RU,2021-07-22 16:51:03,56.7393,38.8563,61.05,60,61,3.58,broken clouds
60,Petropavlovsk-Kamchatskiy,RU,2021-07-22 16:51:03,53.0452,158.6483,50.59,100,90,4.47,fog
61,Brae,GB,2021-07-22 16:51:04,60.3964,-1.353,55.31,78,73,11.54,broken clouds
62,Saint-Leu,RE,2021-07-22 16:51:04,-21.15,55.2833,68.83,70,69,6.08,broken clouds
63,Bilma,NE,2021-07-22 16:51:04,18.6853,12.9164,107.15,11,69,7.54,broken clouds
64,Qaanaaq,GL,2021-07-22 16:51:04,77.484,-69.3632,44.67,66,64,4.41,broken clouds
65,Puerto Ayora,EC,2021-07-22 16:51:05,-0.7393,-90.3518,76.96,94,100,10.0,overcast clouds
66,Avarua,CK,2021-07-22 16:51:05,-21.2078,-159.775,68.05,100,17,1.14,few clouds
67,Upernavik,GL,2021-07-22 16:51:05,72.7868,-56.1549,42.42,88,100,5.21,overcast clouds
68,Saint George,US,2021-07-22 16:51:05,37.1041,-113.5841,93.34,41,1,1.01,clear sky
69,Hobart,AU,2021-07-22 16:51:06,-42.8794,147.3294,51.26,64,100,3.0,overcast clouds
70,San Carlos De Bariloche,AR,2021-07-22 16:48:02,-41.1456,-71.3082,53.35,50,20,18.41,light rain
71,Sola,VU,2021-07-22 16:51:06,-13.8833,167.55,80.85,75,11,11.1,few clouds
72,Vao,NC,2021-07-22 16:51:07,-22.6667,167.4833,69.22,73,0,7.83,clear sky
73,Airai,TL,2021-07-22 16:51:07,-8.9266,125.4092,54.77,51,3,1.88,clear sky
74,Lebu,CL,2021-07-22 16:51:07,-37.6167,-73.65,55.17,71,79,5.12,broken clouds
75,Hay River,CA,2021-07-22 16:51:08,60.8156,-115.7999,64.38,77,75,4.61,moderate rain
76,Ayaviri,PE,2021-07-22 16:51:08,-14.8864,-70.5889,55.78,20,1,5.61,clear sky
77,Mahebourg,MU,2021-07-22 16:51:08,-20.4081,57.7,70.25,68,40,12.66,scattered clouds
78,Teknaf,BD,2021-07-22 16:51:08,20.8624,92.3058,81.14,89,100,19.04,heavy intensity rain
79,Punta Arenas,CL,2021-07-22 16:51:09,-53.15,-70.9167,39.31,87,20,5.75,few clouds
80,Yasnyy,RU,2021-07-22 16:51:09,51.0333,59.8742,77.95,46,36,12.15,scattered clouds
81,Kudahuvadhoo,MV,2021-07-22 16:51:09,2.6708,72.8944,82.62,74,97,11.68,overcast clouds
82,Doka,SD,2021-07-22 16:51:09,13.5167,35.7667,72.25,79,90,7.52,overcast clouds
83,Eregli,TR,2021-07-22 16:51:09,37.5133,34.0467,80.37,31,4,11.77,clear sky
84,Ponta Do Sol,PT,2021-07-22 16:51:10,32.6667,-17.1,80.13,56,0,5.57,clear sky
85,Pevek,RU,2021-07-22 16:51:10,69.7008,170.3133,39.06,73,96,1.99,overcast clouds
86,Khatanga,RU,2021-07-22 16:51:10,71.9667,102.5,52.18,92,50,7.43,scattered clouds
87,Tiksi,RU,2021-07-22 16:51:10,71.6872,128.8694,39.06,85,100,3.62,overcast clouds
88,Ruteng,ID,2021-07-22 16:51:10,-8.6136,120.4721,60.78,92,48,2.73,scattered clouds
89,Geraldton,AU,2021-07-22 16:51:10,-28.7667,114.6,52.21,93,4,9.22,clear sky
90,Provideniya,RU,2021-07-22 16:51:11,64.3833,-173.3,42.37,81,100,2.37,overcast clouds
91,Santiago Del Estero,AR,2021-07-22 16:48:08,-27.7951,-64.2615,74.8,20,4,15.19,clear sky
92,Zlobin,HR,2021-07-22 16:51:11,45.2924,14.6541,76.3,45,0,3.44,clear sky
93,Vestmannaeyjar,IS,2021-07-22 16:51:11,63.4427,-20.2734,52.79,100,90,16.11,fog
94,Puerto Escondido,MX,2021-07-22 16:51:11,15.85,-97.0667,88.79,57,24,5.88,few clouds
95,Sao Gabriel Da Cachoeira,BR,2021-07-22 16:51:11,-0.1303,-67.0892,82.2,83,75,3.44,broken clouds
96,Bambous Virieux,MU,2021-07-22 16:51:12,-20.3428,57.7575,70.21,68,40,12.66,scattered clouds
97,Longyearbyen,SJ,2021-07-22 16:51:12,78.2186,15.6401,49.84,57,75,16.11,broken clouds
98,Coihaique,CL,2021-07-22 16:51:12,-45.5752,-72.0662,49.95,66,75,4.61,light intensity shower rain
99,Mayna,RU,2021-07-22 16:51:12,54.1135,47.6231,59.4,88,35,6.24,scattered clouds
100,Hwange,ZW,2021-07-22 16:51:12,-18.3693,26.5019,68.18,19,0,8.97,clear sky
101,Kavieng,PG,2021-07-22 16:51:13,-2.5744,150.7967,81.57,80,46,11.88,scattered clouds
102,Samarai,PG,2021-07-22 16:51:13,-10.6167,150.6667,77.14,80,100,12.33,overcast clouds
103,Peterhead,GB,2021-07-22 16:50:53,57.5058,-1.7981,66.11,81,41,5.66,scattered clouds
104,Buraydah,SA,2021-07-22 16:51:13,26.326,43.975,109.85,10,75,12.55,broken clouds
105,Guerrero Negro,MX,2021-07-22 16:51:13,27.9769,-114.0611,77.54,60,7,8.1,clear sky
106,Hanna,CA,2021-07-22 16:51:14,51.6334,-111.9018,68.88,58,15,1.99,few clouds
107,Arraial Do Cabo,BR,2021-07-22 16:51:14,-22.9661,-42.0278,75.06,60,20,9.22,few clouds
108,Codrington,AU,2021-07-22 16:51:14,-38.2667,141.9667,42.22,95,100,10.98,overcast clouds
109,Hasaki,JP,2021-07-22 16:51:14,35.7333,140.8333,77.29,86,98,6.55,overcast clouds
110,Waupun,US,2021-07-22 16:51:15,43.6333,-88.7296,78.21,79,99,5.37,overcast clouds
111,Namibe,AO,2021-07-22 16:51:15,-15.1961,12.1522,68.72,69,0,4.99,clear sky
112,Mar Del Plata,AR,2021-07-22 16:48:20,-38.0023,-57.5575,58.87,64,0,13.0,clear sky
113,Labrea,BR,2021-07-22 16:51:16,-7.2586,-64.7981,96.06,27,4,4.05,clear sky
114,Talnakh,RU,2021-07-22 16:51:17,69.4865,88.3972,59.41,95,100,14.16,moderate rain
115,Waddan,LY,2021-07-22 16:51:17,29.1614,16.139,92.3,26,0,13.98,clear sky
116,Rio Gallegos,AR,2021-07-22 16:51:17,-51.6226,-69.2181,46.45,61,20,9.22,few clouds
117,Magalia,US,2021-07-22 16:51:18,39.8121,-121.5783,85.12,20,0,1.99,clear sky
118,Saskylakh,RU,2021-07-22 16:51:18,71.9167,114.0833,58.33,67,90,14.05,overcast clouds
119,Qasigiannguit,GL,2021-07-22 16:51:18,68.8193,-51.1922,39.54,81,99,5.21,overcast clouds
120,Kitimat,CA,2021-07-22 16:51:18,54.0524,-128.6534,56.91,89,100,3.0,light rain
121,Prince Albert,CA,2021-07-22 16:49:17,53.2001,-105.7677,76.95,73,75,11.5,smoke
122,Boende,CD,2021-07-22 16:51:19,-0.2167,20.8667,85.66,32,98,0.76,overcast clouds
123,Bluff,NZ,2021-07-22 16:51:19,-46.6,168.3333,40.8,83,62,11.5,broken clouds
124,Xalpatlahuac,MX,2021-07-22 16:51:19,17.4667,-98.6167,71.96,69,18,4.52,few clouds
125,Sibu,MY,2021-07-22 16:51:19,2.3,111.8167,79.11,94,40,3.0,scattered clouds
126,Avera,US,2021-07-22 16:51:19,33.194,-82.5271,89.91,59,7,2.46,clear sky
127,Hellin,ES,2021-07-22 16:51:19,38.5106,-1.701,100.18,20,0,16.08,clear sky
128,Belmonte,BR,2021-07-22 16:51:20,-15.8631,-38.8828,80.6,66,97,11.45,overcast clouds
129,Pisco,PE,2021-07-22 16:51:20,-13.7,-76.2167,63.01,77,90,8.05,overcast clouds
130,Qaqortoq,GL,2021-07-22 16:51:20,60.7167,-46.0333,49.55,76,34,8.55,scattered clouds
131,Dikson,RU,2021-07-22 16:51:20,73.5069,80.5464,46.99,100,100,23.8,light rain
132,Yeppoon,AU,2021-07-22 16:51:20,-23.1333,150.7333,44.38,73,0,6.93,clear sky
133,Jamestown,US,2021-07-22 16:51:21,42.097,-79.2353,73.29,62,20,7.0,few clouds
134,Santa Isabel,BR,2021-07-22 16:51:21,-23.3156,-46.2214,73.81,25,0,5.32,clear sky
135,Taldan,RU,2021-07-22 16:51:21,53.6667,124.8,65.8,97,100,2.93,overcast clouds
136,Atambua,ID,2021-07-22 16:51:21,-9.1061,124.8925,67.06,80,2,4.16,clear sky
137,Okoneshnikovo,RU,2021-07-22 16:51:21,54.8377,75.0834,68.23,63,20,4.52,few clouds
138,Butaritari,KI,2021-07-22 16:51:22,3.0707,172.7902,83.23,75,54,16.58,light rain
139,Andrews,US,2021-07-22 16:51:22,32.3187,-102.5457,85.28,48,1,14.97,clear sky
140,Alice Springs,AU,2021-07-22 16:48:03,-23.7,133.8833,58.55,38,5,6.91,clear sky
141,Victoria,HK,2021-07-22 16:47:54,22.2855,114.1577,85.32,81,62,5.82,broken clouds
142,Constitucion,CL,2021-07-22 16:51:22,-35.3333,-72.4167,60.17,69,100,7.92,overcast clouds
143,Yellowknife,CA,2021-07-22 16:51:23,62.456,-114.3525,63.12,88,75,6.91,smoke
144,Nchelenge,ZM,2021-07-22 16:51:23,-9.3451,28.734,70.77,52,15,3.56,few clouds
145,Svetlogorsk,BY,2021-07-22 16:51:23,52.6333,29.7333,67.53,55,4,7.4,clear sky
146,Santander,ES,2021-07-22 16:46:27,43.4647,-3.8044,72.3,91,90,4.0,overcast clouds
147,Tual,ID,2021-07-22 16:51:23,-5.6667,132.75,79.61,80,75,16.11,broken clouds
148,Canutama,BR,2021-07-22 16:51:23,-6.5339,-64.3831,96.21,28,2,4.29,clear sky
149,Porkhov,RU,2021-07-22 16:51:24,57.765,29.5561,71.49,53,78,9.31,broken clouds
150,Khvoynaya,RU,2021-07-22 16:51:24,58.9,34.5333,56.62,84,100,4.5,moderate rain
151,Lucera,IT,2021-07-22 16:51:24,41.5082,15.3351,87.62,22,0,9.78,clear sky
152,San Patricio,US,2021-07-22 16:51:24,28.017,-97.5169,88.07,66,94,2.19,overcast clouds
153,Iskar,BG,2021-07-22 16:51:25,43.45,24.2667,82.26,44,75,6.91,broken clouds
154,Leningradskiy,RU,2021-07-22 16:51:25,69.3833,178.4167,37.36,78,71,3.78,broken clouds
155,Baghmara,IN,2021-07-22 16:51:25,23.795,86.2085,83.57,75,41,8.63,scattered clouds
156,Faanui,PF,2021-07-22 16:51:26,-16.4833,-151.75,78.13,75,10,15.41,light rain
157,Isiro,CD,2021-07-22 16:51:26,2.7739,27.616,73.0,77,100,3.09,overcast clouds
158,Labuhan,ID,2021-07-22 16:51:27,-6.8844,112.2051,78.39,79,73,8.46,broken clouds
159,Port Lincoln,AU,2021-07-22 16:51:27,-34.7333,135.8667,53.92,78,90,16.42,light rain
160,Luderitz,NA,2021-07-22 16:51:27,-26.6481,15.1594,60.01,45,4,21.25,clear sky
161,Sonamura,IN,2021-07-22 16:51:27,23.4719,91.2664,80.08,83,46,9.01,moderate rain
162,Misratah,LY,2021-07-22 16:51:27,32.3754,15.0925,81.81,63,0,11.36,clear sky
163,Pangnirtung,CA,2021-07-22 16:51:28,66.1451,-65.7125,46.4,81,90,21.85,overcast clouds
164,Kanniyakumari,IN,2021-07-22 16:51:28,8.0833,77.5667,80.24,81,100,22.44,overcast clouds
165,Oranjestad,AW,2021-07-22 16:51:28,12.524,-70.027,89.55,62,40,25.32,scattered clouds
166,Herat,AF,2021-07-22 16:51:28,34.5,62.0,84.79,14,0,16.17,clear sky
167,Najran,SA,2021-07-22 16:47:11,17.4924,44.1277,77.65,46,84,12.19,broken clouds
168,Sibolga,ID,2021-07-22 16:51:29,1.7427,98.7792,77.27,83,75,3.38,light rain
169,Chicama,PE,2021-07-22 16:51:29,-7.8447,-79.1469,64.94,60,32,9.98,scattered clouds
170,Zalantun,CN,2021-07-22 16:51:29,48.0,122.7167,70.47,94,10,2.1,clear sky
171,Kahului,US,2021-07-22 16:51:29,20.8947,-156.47,74.46,83,20,11.5,few clouds
172,Ginir,ET,2021-07-22 16:51:29,7.1333,40.7,62.96,72,73,8.32,light rain
173,Antofagasta,CL,2021-07-22 16:49:47,-23.65,-70.4,65.21,61,36,6.4,scattered clouds
174,Gornyye Klyuchi,RU,2021-07-22 16:51:30,45.25,133.5,73.56,85,77,3.18,broken clouds
175,Chapais,CA,2021-07-22 16:51:30,49.7834,-74.8492,69.58,32,100,7.54,overcast clouds
176,Severo-Kurilsk,RU,2021-07-22 16:47:21,50.6789,156.125,49.14,94,66,5.17,broken clouds
177,Tasiilaq,GL,2021-07-22 16:51:30,65.6145,-37.6368,39.63,97,100,11.5,light rain
178,Salalah,OM,2021-07-22 16:51:30,17.0151,54.0924,80.01,84,78,11.16,broken clouds
179,Inuvik,CA,2021-07-22 16:48:25,68.3499,-133.7218,54.36,100,90,10.36,mist
180,Santa Rosa,PH,2021-07-22 16:51:31,14.3122,121.1114,79.92,96,100,15.66,moderate rain
181,Salinopolis,BR,2021-07-22 16:51:31,-0.6136,-47.3561,82.99,75,66,13.49,broken clouds
182,Hofn,IS,2021-07-22 16:51:31,64.2539,-15.2082,57.22,82,20,17.27,few clouds
183,Roma,US,2021-07-22 16:51:31,43.2128,-75.4557,75.96,55,1,1.01,clear sky
184,Wattegama,LK,2021-07-22 16:51:31,6.7989,81.4808,79.39,68,100,12.01,overcast clouds
185,Norman Wells,CA,2021-07-22 16:51:31,65.282,-126.8329,64.44,77,75,0.0,broken clouds
186,Grindavik,IS,2021-07-22 16:51:32,63.8424,-22.4338,57.56,100,90,20.71,overcast clouds
187,Brokopondo,SR,2021-07-22 16:51:32,4.75,-55.1667,87.13,58,32,2.48,scattered clouds
188,Jalu,LY,2021-07-22 16:51:32,29.0331,21.5482,93.79,27,2,12.33,clear sky
189,Husavik,IS,2021-07-22 16:51:32,66.0449,-17.3389,69.71,65,24,6.85,few clouds
190,Sladkovo,RU,2021-07-22 16:51:32,55.5284,70.3385,72.25,61,29,9.04,scattered clouds
191,Bima,ID,2021-07-22 16:51:32,-8.4667,118.7167,72.16,94,8,3.78,clear sky
192,Touros,BR,2021-07-22 16:47:22,-5.1989,-35.4608,83.3,62,84,21.09,broken clouds
193,Riverton,US,2021-07-22 16:51:33,40.5219,-111.9391,91.44,41,75,1.01,broken clouds
194,Carutapera,BR,2021-07-22 16:51:33,-1.195,-46.02,83.32,69,85,10.4,overcast clouds
195,Kautokeino,NO,2021-07-22 16:51:33,69.0125,23.0412,43.59,86,97,15.46,overcast clouds
196,Tigzirt,DZ,2021-07-22 16:51:33,36.8886,4.1198,89.08,47,0,14.72,clear sky
197,Sitka,US,2021-07-22 16:51:33,57.0531,-135.33,58.89,72,75,0.0,broken clouds
198,Carroll,US,2021-07-22 16:51:34,39.5501,-77.0164,80.65,55,1,1.01,clear sky
199,Buala,SB,2021-07-22 16:51:34,-8.145,159.5921,80.49,83,60,7.99,light rain
200,Tondi,IN,2021-07-22 16:51:34,9.7333,79.0167,87.03,51,97,19.33,overcast clouds
201,Mehamn,NO,2021-07-22 16:51:35,71.0357,27.8492,44.51,79,100,26.15,overcast clouds
202,Stokmarknes,NO,2021-07-22 16:51:35,68.5646,14.9108,52.5,83,75,12.66,broken clouds
203,Coquimbo,CL,2021-07-22 16:47:58,-29.9533,-71.3436,53.33,87,75,8.05,broken clouds
204,Pokrovsk,UA,2021-07-22 16:51:36,48.282,37.1758,69.42,66,96,11.79,overcast clouds
205,Carangola,BR,2021-07-22 16:51:36,-20.7331,-42.0294,76.95,45,3,6.53,clear sky
206,Nizwa,OM,2021-07-22 16:50:16,22.9333,57.5333,79.09,73,100,5.28,overcast clouds
207,Dali,CN,2021-07-22 16:51:37,25.7,100.1833,63.66,87,94,3.58,overcast clouds
208,Yueyang,CN,2021-07-22 16:50:49,29.3333,113.0919,77.85,79,57,6.06,broken clouds
209,Novobirilyussy,RU,2021-07-22 16:51:37,56.9514,90.6661,60.19,78,33,4.54,scattered clouds
210,Tilichiki,RU,2021-07-22 16:51:37,60.4667,166.1,53.01,73,99,1.77,overcast clouds
211,Cap Malheureux,MU,2021-07-22 16:48:43,-19.9842,57.6142,70.47,71,12,11.99,few clouds
212,Trinidad,BO,2021-07-22 16:51:38,-14.8333,-64.9,82.38,47,0,3.44,clear sky
213,Pangai,TO,2021-07-22 16:51:38,-19.8,-174.35,76.66,80,100,10.47,overcast clouds
214,Meulaboh,ID,2021-07-22 16:51:38,4.1363,96.1285,78.33,85,100,3.06,light rain
215,Poroshkovo,UA,2021-07-22 16:51:38,48.6683,22.7533,74.01,74,78,4.81,broken clouds
216,Ilulissat,GL,2021-07-22 16:51:38,69.2167,-51.1,41.83,75,100,5.75,overcast clouds
217,Saint-Philippe,RE,2021-07-22 16:51:39,-21.3585,55.7679,69.35,75,51,12.57,broken clouds
218,Port-Cartier,CA,2021-07-22 16:51:39,50.0334,-66.8654,64.74,58,98,3.69,overcast clouds
219,Hawalli,KW,2021-07-22 16:51:39,29.2833,47.9972,109.49,43,20,4.61,few clouds
220,Torbay,CA,2021-07-22 16:51:39,47.6666,-52.7314,55.76,95,90,11.5,mist
221,Kyshtovka,RU,2021-07-22 16:51:39,56.555,76.6271,65.48,73,54,6.42,broken clouds
222,Lompoc,US,2021-07-22 16:51:40,34.6391,-120.4579,69.48,91,90,5.75,mist
223,Zafra,ES,2021-07-22 16:51:40,38.4167,-6.4167,99.88,8,0,14.83,clear sky
224,Yanam,IN,2021-07-22 16:51:40,16.7333,82.2167,79.2,87,100,14.5,overcast clouds
225,Jiuquan,CN,2021-07-22 16:51:40,39.7432,98.5174,83.98,28,34,9.48,scattered clouds
226,Ahipara,NZ,2021-07-22 16:51:40,-35.1667,173.1667,52.97,88,8,4.63,clear sky
227,Naujoji Akmene,LT,2021-07-22 16:51:40,56.3167,22.9,74.01,59,89,11.48,overcast clouds
228,Nuuk,GL,2021-07-22 16:47:13,64.1835,-51.7216,47.01,87,90,32.21,moderate rain
229,Iqaluit,CA,2021-07-22 16:51:41,63.7506,-68.5145,51.53,76,75,13.0,broken clouds
230,Dagda,LV,2021-07-22 16:51:41,56.0951,27.5372,66.22,59,65,4.5,broken clouds
231,Petropavl,KZ,2021-07-22 16:47:42,54.8753,69.1628,73.09,59,3,7.27,clear sky
232,Fortuna,US,2021-07-22 16:51:41,40.5982,-124.1573,56.66,94,90,6.91,overcast clouds
233,Chokurdakh,RU,2021-07-22 16:51:41,70.6333,147.9167,38.39,80,67,7.38,broken clouds
234,Olafsvik,IS,2021-07-22 16:51:42,64.8945,-23.7142,52.32,97,100,15.48,overcast clouds
235,Kenai,US,2021-07-22 16:51:42,60.5544,-151.2583,55.09,96,90,8.05,light rain
236,Wanning,CN,2021-07-22 16:51:42,18.8003,110.3967,79.56,89,100,8.61,overcast clouds
237,Tuktoyaktuk,CA,2021-07-22 16:51:42,69.4541,-133.0374,50.0,93,90,14.97,mist
238,Los Llanos De Aridane,ES,2021-07-22 16:51:42,28.6585,-17.9182,72.12,80,0,21.85,clear sky
239,Sterling,US,2021-07-22 16:50:04,39.0062,-77.4286,83.28,43,75,1.01,broken clouds
240,Wagar,SD,2021-07-22 16:51:43,16.1525,36.2032,82.58,62,75,17.76,broken clouds
241,Amahai,ID,2021-07-22 16:51:43,-3.3333,128.9167,75.83,91,98,3.4,overcast clouds
242,Sur,OM,2021-07-22 16:51:43,22.5667,59.5289,94.87,53,2,7.09,clear sky
243,Rabo De Peixe,PT,2021-07-22 16:51:43,37.8,-25.5833,72.91,60,20,13.8,few clouds
244,Kalemie,CD,2021-07-22 16:51:44,-5.9475,29.1947,74.44,55,1,1.28,clear sky
245,Bridlington,GB,2021-07-22 16:51:44,54.0831,-0.1919,73.58,81,2,9.66,clear sky
246,Uglovskoye,RU,2021-07-22 16:51:44,51.3557,80.1942,74.44,52,99,6.93,overcast clouds
247,Pitimbu,BR,2021-07-22 16:51:45,-7.4706,-34.8086,77.59,70,23,19.06,few clouds
248,Voh,NC,2021-07-22 16:51:45,-20.9667,164.7,62.82,88,33,2.75,scattered clouds
249,Barrow,US,2021-07-22 16:51:45,71.2906,-156.7887,35.62,93,90,13.8,fog
250,Mnogovershinnyy,RU,2021-07-22 16:51:46,53.9353,139.9242,64.98,77,21,1.01,few clouds
251,Naryan-Mar,RU,2021-07-22 16:51:46,67.6713,53.087,50.56,87,92,11.05,overcast clouds
252,Neuquen,AR,2021-07-22 16:51:36,-38.9516,-68.0591,53.49,62,0,6.91,clear sky
253,Half Moon Bay,US,2021-07-22 16:51:46,37.4636,-122.4286,77.05,73,20,0.0,few clouds
254,Kloulklubed,PW,2021-07-22 16:51:47,7.0419,134.2556,84.7,77,83,18.3,broken clouds
255,Lorengau,PG,2021-07-22 16:51:47,-2.0226,147.2712,81.5,78,63,6.98,broken clouds
256,Naze,JP,2021-07-22 16:51:47,28.3667,129.4833,76.51,91,100,26.71,overcast clouds
257,Marawi,PH,2021-07-22 16:51:47,7.9986,124.2928,72.64,90,100,5.82,moderate rain
258,El Dorado,US,2021-07-22 16:51:47,38.7666,-120.5177,90.16,18,0,7.63,clear sky
259,Shalinskoye,RU,2021-07-22 16:51:47,55.7228,93.7594,56.98,85,62,2.28,broken clouds
260,Lavrentiya,RU,2021-07-22 16:51:00,65.5833,-171.0,37.87,91,100,5.17,light rain
261,Tabou,CI,2021-07-22 16:51:48,4.423,-7.3528,78.85,73,45,10.07,scattered clouds
262,Abu Samrah,SY,2021-07-22 16:51:48,35.3029,37.1841,83.73,49,0,15.9,clear sky
263,Russell,US,2021-07-22 16:51:48,32.3502,-85.1999,89.38,72,40,0.0,scattered clouds
264,Indramayu,ID,2021-07-22 16:51:48,-6.3264,108.32,79.88,77,51,8.16,broken clouds
265,Ishigaki,JP,2021-07-22 16:51:48,24.3448,124.1572,82.49,89,100,55.92,heavy intensity rain
266,Tautira,PF,2021-07-22 16:51:49,-17.7333,-149.15,71.62,71,23,12.44,few clouds
267,Ambon,ID,2021-07-22 16:51:49,-3.6954,128.1814,75.34,94,40,2.3,scattered clouds
268,Cayenne,GF,2021-07-22 16:50:13,4.9333,-52.3333,87.1,74,20,4.0,few clouds
269,Gonc,HU,2021-07-22 16:51:49,48.4667,21.2833,73.15,53,51,5.01,broken clouds
270,Malibu,US,2021-07-22 16:51:49,34.005,-118.8101,91.53,78,84,1.99,broken clouds
271,Durant,US,2021-07-22 16:51:49,33.994,-96.3708,89.76,54,75,5.75,broken clouds
272,Quesnel,CA,2021-07-22 16:51:49,52.9999,-122.5029,55.9,62,1,6.91,clear sky
273,Vila Velha,BR,2021-07-22 16:51:50,-20.3297,-40.2925,75.96,69,75,12.66,broken clouds
274,Ostersund,SE,2021-07-22 16:51:50,63.1792,14.6357,55.85,67,75,26.46,broken clouds
275,Narsaq,GL,2021-07-22 16:51:50,60.9167,-46.05,53.35,62,30,6.26,scattered clouds
276,Pangoa,PE,2021-07-22 16:51:50,-12.1167,-73.0,82.56,46,1,4.0,clear sky
277,Chuy,UY,2021-07-22 16:51:50,-33.6971,-53.4616,58.93,59,32,7.7,scattered clouds
278,Zeya,RU,2021-07-22 16:51:51,53.75,127.2667,71.02,97,84,3.87,broken clouds
279,Morristown,US,2021-07-22 16:51:51,36.214,-83.2949,87.22,61,6,1.99,clear sky
280,Porto Santo,PT,2021-07-22 16:51:51,33.072,-16.3415,77.38,73,20,14.97,few clouds
281,Waitati,NZ,2021-07-22 16:51:51,-45.75,170.5667,41.81,70,0,3.4,clear sky
282,Merauke,ID,2021-07-22 16:51:51,-8.4667,140.3333,75.0,83,84,11.83,broken clouds
283,Yerbogachen,RU,2021-07-22 16:51:51,61.2767,108.0108,58.19,91,100,4.09,light rain
284,Bubaque,GW,2021-07-22 16:51:52,11.2833,-15.8333,81.52,80,73,15.66,broken clouds
285,Tianpeng,CN,2021-07-22 16:51:52,30.9866,103.9393,75.67,90,7,3.62,light rain
286,Westport,US,2021-07-22 16:51:52,41.1415,-73.3579,82.76,55,20,3.0,few clouds
287,Panaba,MX,2021-07-22 16:51:52,21.2833,-88.2667,96.71,35,3,10.42,clear sky
288,Starodub,RU,2021-07-22 16:51:53,52.5844,32.7633,63.36,64,2,7.16,clear sky
289,Boa Vista,BR,2021-07-22 16:51:53,2.8197,-60.6733,87.78,58,75,2.3,broken clouds
290,Carora,VE,2021-07-22 16:51:53,10.1755,-70.0827,94.33,34,45,18.52,scattered clouds
291,Nabire,ID,2021-07-22 16:51:54,-3.3667,135.4833,75.65,91,98,4.16,overcast clouds
292,Yei,SS,2021-07-22 16:51:54,4.095,30.6779,71.11,82,88,1.88,overcast clouds
293,Yelan-Koleno,RU,2021-07-22 16:51:55,51.1523,41.2306,69.42,59,98,12.12,overcast clouds
294,Mazyr,BY,2021-07-22 16:51:55,52.0495,29.2456,67.19,56,1,9.24,clear sky
295,Tuatapere,NZ,2021-07-22 16:51:55,-46.1333,167.6833,40.82,87,7,5.5,light rain
296,Waipawa,NZ,2021-07-22 16:51:56,-41.4122,175.5153,48.83,84,100,7.25,overcast clouds
297,Nikolskoye,RU,2021-07-22 16:51:56,59.7035,30.7861,68.02,56,97,10.27,overcast clouds
298,Puerto Colombia,CO,2021-07-22 16:51:56,10.9878,-74.9547,93.29,69,9,19.69,clear sky
299,Souillac,MU,2021-07-22 16:51:56,-20.5167,57.5167,70.36,68,40,12.66,scattered clouds
300,Te Anau,NZ,2021-07-22 16:51:57,-45.4167,167.7167,35.96,91,38,0.43,scattered clouds
301,Emerald,AU,2021-07-22 16:51:57,-23.5333,148.1667,55.54,62,0,8.05,clear sky
302,Cabo San Lucas,MX,2021-07-22 16:51:57,22.8909,-109.9124,95.5,64,1,3.0,clear sky
303,Shingu,JP,2021-07-22 16:51:57,33.7333,135.9833,74.91,90,62,5.23,broken clouds
304,Praia,CV,2021-07-22 16:51:57,14.9215,-23.5087,86.54,62,40,10.36,scattered clouds
305,Pakala,IN,2021-07-22 16:51:57,13.4667,79.1167,76.64,65,100,14.5,overcast clouds
306,Morehead,US,2021-07-22 16:51:57,37.2711,-87.1764,84.31,66,1,3.44,clear sky
307,East London,ZA,2021-07-22 16:51:42,-33.0153,27.9116,50.94,62,20,25.32,light rain
308,North Battleford,CA,2021-07-22 16:51:58,52.7834,-108.2847,69.89,73,1,6.91,clear sky
309,Nelson Bay,AU,2021-07-22 16:51:58,-32.7167,152.15,53.1,88,100,10.02,overcast clouds
310,Cabrobo,BR,2021-07-22 16:51:58,-8.5142,-39.31,88.61,31,35,17.2,scattered clouds
311,Berlevag,NO,2021-07-22 16:51:59,70.8578,29.0864,44.55,81,75,29.93,light rain
312,Keti Bandar,PK,2021-07-22 16:51:59,24.1447,67.4497,83.84,83,81,14.83,broken clouds
313,Devils Lake,US,2021-07-22 16:51:59,48.1128,-98.8651,80.71,73,1,4.61,clear sky
314,Kasimov,RU,2021-07-22 16:51:59,54.9411,41.3953,62.08,55,51,6.31,broken clouds
315,Ambulu,ID,2021-07-22 16:51:59,-8.345,113.6058,73.6,89,5,4.85,clear sky
316,Hovd,MN,2021-07-22 16:51:59,48.0056,91.6419,77.61,25,100,4.21,overcast clouds
317,Gizo,SB,2021-07-22 16:52:00,-8.103,156.8419,80.69,80,44,4.92,scattered clouds
318,Uruguaiana,BR,2021-07-22 16:52:00,-29.7547,-57.0883,69.73,49,0,5.75,clear sky
319,Taltal,CL,2021-07-22 16:52:00,-25.4,-70.4833,62.73,66,19,4.45,few clouds
320,Sao Felix Do Xingu,BR,2021-07-22 16:52:00,-6.6447,-51.995,97.23,23,18,4.72,few clouds
321,Polyarnyy,RU,2021-07-22 16:52:00,69.1989,33.4478,48.67,70,97,20.45,overcast clouds
322,Umm Kaddadah,SD,2021-07-22 16:52:00,13.6017,26.6876,88.83,41,98,13.53,overcast clouds
323,Gilgit,PK,2021-07-22 16:52:01,35.9221,74.3087,81.77,40,13,4.61,few clouds
324,Andenes,NO,2021-07-22 16:52:01,69.3143,16.1194,49.06,87,75,18.41,broken clouds
325,Lukovetskiy,RU,2021-07-22 16:52:01,64.2956,41.9211,57.18,92,100,3.89,overcast clouds
326,Zhigansk,RU,2021-07-22 16:52:01,66.7697,123.3711,58.6,87,81,6.44,light rain
327,Mount Pleasant,US,2021-07-22 16:49:53,32.7941,-79.8626,89.58,75,40,0.0,light rain
328,Hambantota,LK,2021-07-22 16:52:02,6.1241,81.1185,81.01,77,100,21.09,overcast clouds
329,College,US,2021-07-22 16:52:02,64.8569,-147.8028,64.72,70,75,0.0,smoke
330,Khasan,RU,2021-07-22 16:52:03,42.4308,130.6434,74.71,92,99,2.06,overcast clouds
331,Benjamin Constant,BR,2021-07-22 16:52:03,-4.3831,-70.0311,86.13,58,0,10.36,clear sky
332,Camacha,PT,2021-07-22 16:52:03,33.0833,-16.3333,74.62,73,20,14.97,few clouds
333,Lianran,CN,2021-07-22 16:52:04,24.9227,102.485,64.94,92,96,0.89,overcast clouds
334,Rio Grande,BR,2021-07-22 16:47:32,-32.035,-52.0986,66.31,56,13,11.12,few clouds
335,Nanortalik,GL,2021-07-22 16:52:04,60.1432,-45.2371,45.66,84,64,13.49,broken clouds
336,Bathsheba,BB,2021-07-22 16:52:05,13.2167,-59.5167,86.61,70,40,20.71,scattered clouds
337,Dingle,PH,2021-07-22 16:52:05,10.9995,122.6711,77.94,82,100,12.71,moderate rain
338,Kaya,BF,2021-07-22 16:52:05,13.0917,-1.0844,95.4,33,72,7.85,broken clouds
339,Novikovo,RU,2021-07-22 16:52:05,51.1537,37.8879,67.91,56,95,9.78,overcast clouds
340,Bauchi,NG,2021-07-22 16:52:05,10.5,10.0,79.34,69,100,6.89,overcast clouds
341,La Primavera,CO,2021-07-22 16:52:06,5.4906,-70.4092,75.79,89,100,7.7,overcast clouds
342,Mandalgovi,MN,2021-07-22 16:52:06,45.7625,106.2708,65.41,58,43,10.13,scattered clouds
343,North Bend,US,2021-07-22 16:52:06,43.4065,-124.2243,66.24,75,1,0.0,clear sky
344,Beringovskiy,RU,2021-07-22 16:51:13,63.05,179.3167,47.3,90,27,6.89,scattered clouds
345,Palmer,US,2021-07-22 16:52:06,42.1584,-72.3287,81.46,51,40,1.99,scattered clouds
346,Carbonia,IT,2021-07-22 16:52:07,39.1672,8.5222,92.84,39,0,10.45,clear sky
347,Laguna,US,2021-07-22 16:52:07,38.421,-121.4238,93.04,60,1,4.61,clear sky
348,Bambanglipuro,ID,2021-07-22 16:52:07,-7.95,110.2833,75.76,83,62,6.82,broken clouds
349,Port Keats,AU,2021-07-22 16:52:07,-14.25,129.55,68.67,73,14,1.99,few clouds
350,Bethel,US,2021-07-22 16:52:07,41.3712,-73.414,81.36,58,1,3.0,clear sky
351,Givors,FR,2021-07-22 16:52:07,45.5833,4.7667,86.49,53,0,5.41,clear sky
352,Vitre,FR,2021-07-22 16:52:08,48.1178,-1.2058,85.08,37,41,12.66,scattered clouds
353,Lubumbashi,CD,2021-07-22 16:52:08,-11.6609,27.4794,66.61,34,1,3.65,clear sky
354,San Antonio,US,2021-07-22 16:52:08,29.4241,-98.4936,88.5,67,1,1.01,clear sky
355,Port Augusta,AU,2021-07-22 16:52:08,-32.5,137.7667,48.7,91,77,17.09,broken clouds
356,Jumla,NP,2021-07-22 16:52:08,29.2747,82.1838,64.87,95,99,1.86,overcast clouds
357,Saint-Pierre,RE,2021-07-22 16:51:47,-21.3393,55.4781,69.44,76,0,4.61,clear sky
358,Kuryk,KZ,2021-07-22 16:52:09,43.2,51.65,88.7,39,99,7.09,overcast clouds
359,Vila Franca Do Campo,PT,2021-07-22 16:52:09,37.7167,-25.4333,73.81,67,57,9.33,broken clouds
360,Midland,US,2021-07-22 16:52:09,31.9974,-102.0779,86.68,55,1,12.66,clear sky
361,Belaya Gora,RU,2021-07-22 16:52:09,68.5333,146.4167,48.51,77,0,6.6,clear sky
362,Ancud,CL,2021-07-22 16:48:20,-41.8697,-73.8203,53.13,95,100,13.73,light rain
363,Taormina,IT,2021-07-22 16:52:09,37.8536,15.2885,84.04,48,1,7.54,clear sky
364,Nome,US,2021-07-22 16:52:10,64.5011,-165.4064,43.16,81,90,8.05,overcast clouds
365,Gladstone,AU,2021-07-22 16:52:10,-23.85,151.25,49.93,87,75,6.91,broken clouds
366,Waingapu,ID,2021-07-22 16:52:10,-9.6567,120.2641,72.12,82,16,5.82,few clouds
367,Paraiso,CR,2021-07-22 16:52:10,9.8383,-83.8656,74.88,74,96,5.82,overcast clouds
368,Shaunavon,CA,2021-07-22 16:52:10,49.6501,-108.4181,76.78,30,12,6.13,few clouds
369,La Ronge,CA,2021-07-22 16:52:10,55.1001,-105.2842,77.22,73,75,9.22,smoke
370,Huarmey,PE,2021-07-22 16:52:11,-10.0681,-78.1522,69.4,70,36,10.63,scattered clouds
371,Progreso,MX,2021-07-22 16:52:11,21.2833,-89.6667,88.27,60,3,13.49,clear sky
372,Marau,BR,2021-07-22 16:52:11,-28.4492,-52.2,74.19,41,0,4.03,clear sky
373,Krasnyy Chikoy,RU,2021-07-22 16:52:11,50.3643,108.7512,57.47,96,1,2.91,clear sky
374,Bani,DO,2021-07-22 16:52:11,18.2833,-70.3333,89.74,56,25,15.41,scattered clouds
375,Keningau,MY,2021-07-22 16:52:12,5.3378,116.1602,75.65,97,99,1.1,overcast clouds
376,Szczecinek,PL,2021-07-22 16:47:49,53.7079,16.6994,70.79,56,68,3.4,broken clouds
377,Pandan,PH,2021-07-22 16:52:13,14.0453,124.1694,82.04,81,100,18.75,overcast clouds
378,Chaohu,CN,2021-07-22 16:52:14,31.6,117.8667,80.71,94,12,8.61,few clouds
379,Tommot,RU,2021-07-22 16:52:14,58.9564,126.2925,58.55,96,84,2.93,broken clouds
380,Salaya,IN,2021-07-22 16:52:14,22.3167,69.6,83.84,83,100,16.8,overcast clouds
381,Healesville,AU,2021-07-22 16:52:14,-37.65,145.5167,48.52,85,100,4.27,light rain
382,Muyezerskiy,RU,2021-07-22 16:52:15,63.9333,31.65,55.04,82,100,6.33,overcast clouds
383,Aksarka,RU,2021-07-22 16:52:15,66.5606,67.7975,51.13,54,8,7.25,clear sky
384,Marsh Harbour,BS,2021-07-22 16:52:15,26.5412,-77.0636,83.8,72,78,5.14,broken clouds
385,Orangeville,CA,2021-07-22 16:52:15,43.9168,-80.0997,76.35,45,73,9.31,broken clouds
386,Baker City,US,2021-07-22 16:52:15,44.7749,-117.8344,68.94,36,1,6.91,clear sky
387,La Union,PE,2021-07-22 16:52:16,-5.4,-80.75,80.2,46,12,11.43,few clouds
388,Beatrice,US,2021-07-22 16:52:16,40.2681,-96.747,86.74,57,1,10.36,clear sky
389,Hami,CN,2021-07-22 16:52:16,42.8,93.45,96.33,15,53,11.05,broken clouds
390,Novyy Rogachik,RU,2021-07-22 16:52:16,48.6768,44.0608,76.1,60,52,16.08,broken clouds
391,Clyde River,CA,2021-07-22 16:52:17,70.4692,-68.5914,39.43,93,90,5.75,light rain
392,Bintulu,MY,2021-07-22 16:52:17,3.1667,113.0333,77.41,100,20,1.01,few clouds
393,Covington,US,2021-07-22 16:52:17,39.0837,-84.5086,80.58,57,1,1.01,clear sky
394,Biak,ID,2021-07-22 16:52:17,-0.9131,122.8766,74.25,90,100,8.61,light rain
395,Novyy Urengoy,RU,2021-07-22 16:52:17,66.0833,76.6333,58.24,54,86,8.1,overcast clouds
396,Caborca,MX,2021-07-22 16:52:17,30.5838,-111.101,84.49,54,77,6.38,broken clouds
397,Ouadda,CF,2021-07-22 16:52:18,8.0777,22.4007,69.1,97,98,5.23,moderate rain
398,Gat,IL,2021-07-22 16:52:18,31.61,34.7642,83.8,19,0,7.18,clear sky
399,Boddam,GB,2021-07-22 16:52:18,57.4667,-1.7833,66.11,82,42,5.46,scattered clouds
400,Timiryazevskiy,RU,2021-07-22 16:52:18,56.49,84.8769,66.09,88,5,4.07,clear sky
401,Kavaratti,IN,2021-07-22 16:52:19,10.5669,72.642,82.51,81,100,22.19,overcast clouds
402,Gao,ML,2021-07-22 16:52:19,16.6362,1.637,100.56,25,56,6.62,broken clouds
403,Saint-Joseph,RE,2021-07-22 16:52:19,-21.3667,55.6167,68.36,74,66,10.54,broken clouds
404,Mindelo,CV,2021-07-22 16:52:19,16.8901,-24.9804,81.95,61,20,17.27,few clouds
405,Riyadh,SA,2021-07-22 16:48:10,24.6877,46.7219,102.34,23,90,10.83,overcast clouds
406,Vanimo,PG,2021-07-22 16:52:19,-2.6741,141.3028,77.72,90,80,4.76,broken clouds
407,Rondonopolis,BR,2021-07-22 16:52:20,-16.4708,-54.6356,95.4,15,0,5.5,clear sky
408,Morondava,MG,2021-07-22 16:52:20,-20.2833,44.2833,75.09,80,7,11.39,clear sky
409,Bousso,TD,2021-07-22 16:52:20,10.4795,16.7117,71.73,94,100,7.76,light rain
410,Lagoa,PT,2021-07-22 16:52:20,39.05,-27.9833,67.62,74,55,15.37,broken clouds
411,Abaza,RU,2021-07-22 16:52:21,52.655,90.0928,63.14,96,100,2.66,overcast clouds
412,Hamilton,US,2021-07-22 16:52:13,39.1834,-84.5333,80.1,57,1,1.01,clear sky
413,Ola,RU,2021-07-22 16:52:21,59.5833,151.2833,53.85,97,100,2.8,light rain
414,Marathon,US,2021-07-22 16:52:21,44.9,-89.7668,74.08,76,75,6.91,broken clouds
415,Aden,YE,2021-07-22 16:49:07,12.7794,45.0367,89.04,57,10,21.56,clear sky
416,Drovyanaya,RU,2021-07-22 16:52:22,51.5833,113.0333,63.91,97,88,4.79,overcast clouds
417,Neyshabur,IR,2021-07-22 16:48:51,36.2133,58.7958,87.6,16,27,9.28,scattered clouds
418,Sao Joao Da Barra,BR,2021-07-22 16:48:12,-21.6403,-41.0511,77.09,64,87,8.77,overcast clouds
419,Divnomorskoye,RU,2021-07-22 16:52:23,44.5011,38.1353,73.74,77,24,10.51,few clouds
420,Aloleng,PH,2021-07-22 16:52:23,16.1307,119.7824,79.65,93,100,19.28,heavy intensity rain
421,Mayumba,GA,2021-07-22 16:52:24,-3.432,10.6554,73.26,81,96,8.48,overcast clouds
422,Muhos,FI,2021-07-22 16:52:24,64.808,25.9931,64.18,59,87,8.25,overcast clouds
423,Para De Minas,BR,2021-07-22 16:52:24,-19.8603,-44.6083,76.84,25,2,5.35,clear sky
424,Udankudi,IN,2021-07-22 16:52:24,8.4333,78.0167,82.44,65,100,14.94,overcast clouds
425,Rawson,AR,2021-07-22 16:52:25,-43.3002,-65.1023,60.19,34,100,12.12,overcast clouds
426,Mitu,CO,2021-07-22 16:52:25,1.1983,-70.1733,79.41,84,67,3.78,broken clouds
427,Banting,MY,2021-07-22 16:52:25,2.8167,101.5,82.13,76,91,2.98,overcast clouds
428,Walvis Bay,NA,2021-07-22 16:52:25,-22.9575,14.5053,70.75,32,0,14.97,clear sky
429,Derzhavinsk,KZ,2021-07-22 16:52:25,51.1,66.3167,77.7,35,0,11.5,clear sky
430,Bengkulu,ID,2021-07-22 16:52:25,-3.8004,102.2655,75.69,85,36,3.74,scattered clouds
431,Marsa Matruh,EG,2021-07-22 16:52:26,31.3525,27.2453,84.4,70,0,13.8,clear sky
432,Turayf,SA,2021-07-22 16:52:26,31.6725,38.6637,95.25,24,0,20.71,clear sky
433,Bereda,ES,2021-07-22 16:52:26,43.2686,-7.5406,80.42,57,67,5.3,broken clouds
434,Sorland,NO,2021-07-22 16:52:26,67.667,12.6934,49.86,82,99,13.94,overcast clouds
435,Wellington,NZ,2021-07-22 16:52:26,-41.2866,174.7756,49.06,69,99,1.01,overcast clouds
436,Solnechnyy,RU,2021-07-22 16:52:27,50.7214,136.6319,73.87,79,73,2.37,broken clouds
437,Miranda,CO,2021-07-22 16:52:27,3.2499,-76.2281,84.65,48,100,3.91,overcast clouds
438,Cherskiy,RU,2021-07-22 16:49:52,68.75,161.3,56.91,63,95,5.14,overcast clouds
439,Salaga,GH,2021-07-22 16:52:28,8.5508,-0.5188,82.9,64,97,6.2,overcast clouds
440,Sangar,RU,2021-07-22 16:52:28,63.9242,127.4739,59.16,68,6,3.06,clear sky
441,Lafia,NG,2021-07-22 16:52:28,8.4833,8.5167,77.65,89,75,3.91,moderate rain
442,Port Blair,IN,2021-07-22 16:52:28,11.6667,92.75,82.27,85,91,20.98,overcast clouds
443,Zhob,PK,2021-07-22 16:52:28,31.3411,69.4481,79.7,52,40,3.2,scattered clouds
444,Zabol,AF,2021-07-22 16:52:28,32.25,67.25,80.76,18,62,9.22,broken clouds
445,Lagos,NG,2021-07-22 16:52:29,6.5833,3.75,82.72,76,99,8.14,overcast clouds
446,Twin Falls,US,2021-07-22 16:52:29,42.3505,-114.6445,68.34,40,40,8.05,scattered clouds
447,Mareeba,AU,2021-07-22 16:52:29,-17.0,145.4333,61.52,94,34,1.72,scattered clouds
448,Margate,GB,2021-07-22 16:52:29,51.3813,1.3862,75.7,66,0,1.99,clear sky
449,Choconta,CO,2021-07-22 16:52:29,5.1447,-73.6858,56.62,85,100,6.64,overcast clouds
450,Toamasina,MG,2021-07-22 16:49:45,-18.1667,49.3833,68.0,94,75,9.22,light rain
451,Pandan Niog,PH,2021-07-22 16:52:30,6.2282,120.5631,82.98,78,100,12.33,overcast clouds
452,Broome,US,2021-07-22 16:52:30,42.2506,-75.833,74.7,62,40,4.0,scattered clouds
453,Cidreira,BR,2021-07-22 16:52:30,-30.1811,-50.2056,61.66,65,6,13.11,clear sky
454,Longyan,CN,2021-07-22 16:52:31,25.1072,117.0225,76.39,75,49,1.99,scattered clouds
455,Poum,NC,2021-07-22 16:52:31,-20.2333,164.0167,70.63,73,11,11.07,few clouds
456,Nouadhibou,MR,2021-07-22 16:52:32,20.931,-17.0347,75.18,64,1,23.02,clear sky
457,Huicungo,PE,2021-07-22 16:52:32,-7.2833,-76.8,80.85,78,20,3.44,few clouds
458,Atar,MR,2021-07-22 16:52:32,20.5169,-13.0499,102.85,8,21,11.03,few clouds
459,Acapulco,MX,2021-07-22 16:52:33,16.8634,-99.8901,87.4,60,20,3.33,few clouds
460,Erenhot,CN,2021-07-22 16:52:33,43.6475,111.9767,81.28,47,100,5.5,overcast clouds
461,Severomorsk,RU,2021-07-22 16:52:33,69.0689,33.4162,48.6,72,91,18.03,overcast clouds
462,Santa Maria,BR,2021-07-22 16:52:34,-29.6842,-53.8069,63.7,63,0,5.75,clear sky
463,Alyangula,AU,2021-07-22 16:52:34,-13.8483,136.4192,66.07,94,47,4.61,scattered clouds
464,Portland,US,2021-07-22 16:49:16,45.5234,-122.6762,68.52,68,40,1.01,scattered clouds
465,Padilla,CO,2021-07-22 16:52:34,3.2204,-76.3139,85.89,46,100,2.93,overcast clouds
466,Goundam,ML,2021-07-22 16:52:34,16.4145,-3.6708,102.63,22,5,8.97,clear sky
467,Saldanha,ZA,2021-07-22 16:52:34,-33.0117,17.9442,51.85,64,13,11.83,few clouds
468,Yucca Valley,US,2021-07-22 16:52:35,34.1142,-116.4322,90.43,44,93,5.01,overcast clouds
469,Luba,GQ,2021-07-22 16:52:35,3.4568,8.5547,82.29,87,86,6.17,light rain
470,Eyl,SO,2021-07-22 16:52:35,7.9803,49.8164,80.11,74,88,26.64,overcast clouds
471,Emirdag,TR,2021-07-22 16:52:35,39.0197,31.15,69.66,50,10,16.26,clear sky
472,Opalenica,PL,2021-07-22 16:52:35,52.3089,16.4128,73.51,69,74,4.23,broken clouds
473,Moranbah,AU,2021-07-22 16:52:35,-22.0016,148.0466,50.59,63,2,3.4,clear sky
474,Lavumisa,SZ,2021-07-22 16:52:36,-27.31,31.892,54.27,54,13,4.83,few clouds
475,Gasa,PS,2021-07-22 16:48:01,31.5,34.4667,84.9,65,0,6.89,clear sky
476,Mecca,SA,2021-07-22 16:50:21,21.4267,39.8261,91.98,34,69,6.15,broken clouds
477,Barcelos,PT,2021-07-22 16:52:36,41.5388,-8.6151,81.28,61,44,8.23,scattered clouds
478,Radlje Ob Dravi,SI,2021-07-22 16:52:36,46.6142,15.2264,81.01,65,90,3.22,overcast clouds
479,Ponta Delgada,PT,2021-07-22 16:51:03,37.7333,-25.6667,74.12,60,20,13.8,few clouds
480,Berdigestyakh,RU,2021-07-22 16:52:37,62.0989,126.6992,62.26,67,93,1.9,overcast clouds
481,Vardo,NO,2021-07-22 16:52:37,70.3705,31.1107,48.4,87,75,24.16,shower rain
482,Casino,AU,2021-07-22 16:52:37,-28.8667,153.05,49.57,93,43,5.75,scattered clouds
483,Kidal,ML,2021-07-22 16:52:37,18.4411,1.4078,102.33,22,33,7.58,scattered clouds
484,Stephenville,US,2021-07-22 16:52:37,32.2207,-98.2023,88.14,61,40,4.61,scattered clouds
485,Aklavik,CA,2021-07-22 16:52:38,68.2191,-135.0107,54.32,94,75,14.97,broken clouds
486,Luganville,VU,2021-07-22 16:52:38,-15.5333,167.1667,76.59,88,29,1.57,scattered clouds
487,Parrita,CR,2021-07-22 16:52:38,9.5201,-84.3225,89.98,71,100,4.41,overcast clouds
488,Puerto Del Rosario,ES,2021-07-22 16:52:38,28.5004,-13.8627,82.15,51,20,21.85,few clouds
489,Diego De Almagro,CL,2021-07-22 16:52:38,-26.3667,-70.05,81.32,7,0,6.91,clear sky
490,Saquarema,BR,2021-07-22 16:52:38,-22.92,-42.5103,75.24,63,1,7.74,clear sky
491,Elverum,NO,2021-07-22 16:52:39,60.8819,11.5623,83.05,38,69,1.77,broken clouds
492,Altamont,US,2021-07-22 16:52:39,42.2068,-121.7372,71.78,49,1,1.01,clear sky
493,Batsfjord,NO,2021-07-22 16:52:39,70.6345,29.7185,48.42,81,75,32.21,light rain
494,Eyrarbakki,IS,2021-07-22 16:52:39,63.863,-21.1481,55.45,94,100,13.4,overcast clouds
495,Porto Belo,BR,2021-07-22 16:52:39,-27.1578,-48.5531,71.8,60,0,7.83,clear sky
496,Chirgaon,IN,2021-07-22 16:52:40,25.5833,78.8167,87.12,70,100,4.52,overcast clouds
497,Bafq,IR,2021-07-22 16:52:40,31.6128,55.4107,94.68,12,4,10.49,clear sky
498,Guangyuan,CN,2021-07-22 16:52:40,32.442,105.823,74.34,95,7,2.06,clear sky
499,Aasiaat,GL,2021-07-22 16:52:41,68.7098,-52.8699,38.16,95,100,5.01,overcast clouds
500,Champerico,GT,2021-07-22 16:52:41,14.3,-91.9167,93.76,65,18,3.22,few clouds
501,Babanka,UA,2021-07-22 16:52:41,48.7097,30.4483,66.29,69,87,7.9,overcast clouds
502,Egvekinot,RU,2021-07-22 16:50:05,66.3167,-179.1667,39.06,85,89,2.42,overcast clouds
503,Manggar,ID,2021-07-22 16:52:42,-2.8833,108.2667,81.73,80,40,10.58,scattered clouds
504,Bonga,ET,2021-07-22 16:52:42,7.2833,36.2333,60.73,98,99,0.92,light rain
505,Awjilah,LY,2021-07-22 16:52:43,29.1081,21.2869,92.84,30,4,16.44,clear sky
506,Bollnas,SE,2021-07-22 16:52:43,61.3482,16.3946,75.38,42,6,11.1,clear sky
507,Ondangwa,NA,2021-07-22 16:52:43,-17.9167,15.95,77.0,15,0,5.75,clear sky
508,Cap-Haitien,HT,2021-07-22 16:52:43,19.7578,-72.2042,85.95,62,75,13.8,broken clouds
509,Axim,GH,2021-07-22 16:52:43,4.8699,-2.2405,79.2,73,86,10.04,overcast clouds
510,Kharsawan,IN,2021-07-22 16:52:44,22.8,85.8333,81.3,85,16,6.96,few clouds
511,Vanderhoof,CA,2021-07-22 16:52:44,54.0166,-124.0198,56.98,53,100,13.27,overcast clouds
512,Auki,SB,2021-07-22 16:50:12,-8.7676,160.7034,76.91,89,99,2.73,overcast clouds
513,Bad Munstereifel,DE,2021-07-22 16:52:45,50.55,6.7667,74.91,62,28,6.6,scattered clouds
514,Lasa,IT,2021-07-22 16:51:17,46.6166,10.7002,74.14,72,36,1.77,moderate rain
515,Yumen,CN,2021-07-22 16:52:45,40.2833,97.2,86.63,27,60,20.98,broken clouds
516,Zhezkazgan,KZ,2021-07-22 16:52:45,47.8043,67.7144,79.25,27,0,9.91,clear sky
517,Iberia,US,2021-07-22 16:52:45,29.9502,-91.7507,89.58,66,20,6.91,few clouds
518,Pacific Grove,US,2021-07-22 16:52:45,36.6177,-121.9166,70.63,89,90,4.0,overcast clouds
519,Deshnok,IN,2021-07-22 16:52:46,27.7986,73.3447,91.06,46,92,9.73,overcast clouds
520,Ocampo,MX,2021-07-22 16:52:46,21.65,-101.5,67.37,60,84,9.69,broken clouds
521,Mahroni,IN,2021-07-22 16:52:46,24.5862,78.7288,82.53,80,100,4.21,moderate rain
522,Oyama,JP,2021-07-22 16:52:46,36.3,139.8,83.59,78,80,2.17,broken clouds
523,Orlik,RU,2021-07-22 16:52:46,52.5178,99.825,55.31,88,93,3.31,light rain
524,Carnot,CF,2021-07-22 16:52:47,4.9409,15.8665,74.52,89,95,2.53,light rain
525,Adrar,MR,2021-07-22 16:52:47,20.5022,-10.0711,106.14,7,97,8.19,overcast clouds
526,Nokaneng,BW,2021-07-22 16:52:47,-19.6667,22.2667,56.59,14,0,7.45,clear sky
527,Aripuana,BR,2021-07-22 16:52:47,-9.1667,-60.6333,97.0,21,0,5.06,clear sky
528,Kampot,KH,2021-07-22 16:52:47,10.6167,104.1833,82.45,86,100,7.2,overcast clouds
529,Marzuq,YE,2021-07-22 16:52:47,14.4,46.4667,78.84,62,71,8.68,broken clouds
530,Semey,KZ,2021-07-22 16:52:48,50.4111,80.2275,74.25,59,100,8.61,overcast clouds
531,Padang,ID,2021-07-22 16:52:48,-0.9492,100.3543,77.05,84,66,2.86,broken clouds
532,Polunochnoye,RU,2021-07-22 16:52:48,60.8697,60.4153,55.92,99,100,7.2,overcast clouds
533,Meaford,CA,2021-07-22 16:52:48,44.6001,-80.583,76.71,66,90,8.16,light rain
534,Anshun,CN,2021-07-22 16:52:49,26.25,105.9333,66.69,94,100,2.73,overcast clouds
535,Brazzaville,CG,2021-07-22 16:52:49,-4.2658,15.2832,82.76,57,41,8.05,scattered clouds
536,Qena,EG,2021-07-22 16:52:49,26.1615,32.7183,102.31,20,2,14.07,clear sky
537,Cajazeiras,BR,2021-07-22 16:52:49,-6.8903,-38.5553,93.22,27,5,8.84,clear sky
538,Alvares Machado,BR,2021-07-22 16:52:49,-22.0794,-51.4719,80.19,17,0,8.05,clear sky
539,Tiznit,MA,2021-07-22 16:52:49,29.5833,-9.5,97.57,19,49,4.41,scattered clouds
540,Yantal,RU,2021-07-22 16:52:50,56.8471,105.2542,55.78,97,1,3.62,clear sky
541,Port-Gentil,GA,2021-07-22 16:52:50,-0.7193,8.7815,78.76,69,40,12.66,scattered clouds
542,Asau,RO,2021-07-22 16:52:51,46.4333,26.4,70.72,54,65,4.32,broken clouds
543,Omboue,GA,2021-07-22 16:52:51,-1.5746,9.2618,74.21,76,93,8.77,overcast clouds
544,Quelimane,MZ,2021-07-22 16:49:47,-17.8786,36.8883,76.95,83,40,10.0,scattered clouds
545,Itarema,BR,2021-07-22 16:52:52,-2.9248,-39.9167,87.48,53,78,19.39,broken clouds
546,San Jeronimo,PE,2021-07-22 16:52:52,-11.9472,-75.2829,59.74,34,3,1.23,clear sky
547,Arlit,NE,2021-07-22 16:52:53,18.7369,7.3853,106.09,17,45,4.27,scattered clouds
548,Virginia Beach,US,2021-07-22 16:50:10,36.8529,-75.978,83.03,61,1,8.05,clear sky
549,Tagusao,PH,2021-07-22 16:52:53,9.1924,117.8141,81.88,82,100,15.93,moderate rain
550,Port Hedland,AU,2021-07-22 16:52:53,-20.3167,118.5667,68.05,83,68,9.22,broken clouds
551,Sabang,ID,2021-07-22 16:52:53,5.8933,95.3214,83.52,76,61,20.0,broken clouds
552,Mabua,PH,2021-07-22 16:52:53,9.8089,125.4422,82.58,77,90,15.5,overcast clouds
553,Whitehorse,CA,2021-07-22 16:48:40,60.7161,-135.0538,54.37,66,75,4.61,broken clouds
554,Mutis,CO,2021-07-22 16:52:54,6.2262,-77.4044,82.24,83,89,6.51,moderate rain
555,Manacapuru,BR,2021-07-22 16:52:54,-3.2997,-60.6206,90.18,60,46,1.63,light rain
556,Male,MV,2021-07-22 16:52:54,4.1748,73.5089,84.15,79,75,13.8,broken clouds
557,Tecolotlan,MX,2021-07-22 16:52:54,20.2167,-104.05,80.02,51,58,1.3,broken clouds
558,Miramar,US,2021-07-22 16:52:54,25.9873,-80.2323,95.05,64,1,1.99,clear sky
559,Weligama,LK,2021-07-22 16:52:54,5.9667,80.4167,79.05,87,100,15.95,light rain
560,Yokadouma,CM,2021-07-22 16:52:55,3.5167,15.05,75.06,87,100,2.64,light rain
561,Lodja,CD,2021-07-22 16:52:55,-3.4833,23.4333,83.98,26,63,1.61,broken clouds
562,Shu,KZ,2021-07-22 16:52:55,43.5983,73.7614,74.23,53,51,7.27,broken clouds
563,San Joaquin,US,2021-07-22 16:52:55,37.9333,-121.3011,85.08,50,1,3.44,clear sky
564,Tulun,RU,2021-07-22 16:52:55,54.5611,100.5792,62.8,65,64,4.05,broken clouds
565,Usinsk,RU,2021-07-22 16:52:55,65.9939,57.5281,52.48,56,60,8.86,broken clouds
566,Nouakchott,MR,2021-07-22 16:51:55,18.0858,-15.9785,78.73,67,21,19.64,few clouds
567,Pavlysh,UA,2021-07-22 16:52:56,48.9176,33.3569,71.62,45,55,12.73,broken clouds
568,Anloga,GH,2021-07-22 16:52:56,5.7947,0.8973,82.62,75,84,13.87,broken clouds
569,Kendallville,US,2021-07-22 16:52:56,41.4414,-85.265,76.73,60,75,3.44,broken clouds
570,Kurumkan,RU,2021-07-22 16:52:56,54.3,110.3,62.55,68,18,3.24,few clouds
571,Gobabis,NA,2021-07-22 16:52:56,-22.45,18.9667,49.59,10,0,11.12,clear sky
572,Sakakah,SA,2021-07-22 16:52:57,29.9697,40.2064,103.57,16,0,10.16,clear sky
573,San Policarpo,PH,2021-07-22 16:52:57,12.1791,125.5072,81.93,73,100,14.5,overcast clouds
574,Miyako,JP,2021-07-22 16:52:57,39.6367,141.9525,71.83,97,97,4.09,overcast clouds
575,Storsteinnes,NO,2021-07-22 16:52:57,69.2408,19.2344,50.65,96,100,4.9,overcast clouds
576,Rabaul,PG,2021-07-22 16:52:57,-4.1967,152.1721,78.42,82,72,4.7,broken clouds
577,Novaya Zaimka,RU,2021-07-22 16:52:58,56.4857,66.9241,71.46,74,62,7.61,broken clouds
578,San Ignacio,BZ,2021-07-22 16:52:58,17.1561,-89.0714,86.14,70,40,6.91,scattered clouds
579,Thinadhoo,MV,2021-07-22 16:52:58,0.5333,72.9333,81.97,74,100,9.19,light rain
580,Malchevskaya,RU,2021-07-22 16:52:58,49.0552,40.3625,72.68,54,100,16.11,overcast clouds
581,Port Arthur,CN,2021-07-22 16:52:58,38.8,121.2667,79.02,50,98,4.81,overcast clouds
582,Mao,ES,2021-07-22 16:52:58,39.8885,4.2658,86.56,45,0,9.22,clear sky
583,Oriximina,BR,2021-07-22 16:52:59,-1.7656,-55.8661,93.67,41,12,8.03,few clouds
584,Kralendijk,BQ,2021-07-22 16:52:59,12.15,-68.2667,87.78,66,75,23.02,broken clouds
585,Villazon,BO,2021-07-22 16:52:59,-22.0866,-65.5942,57.96,15,0,7.63,clear sky
586,Faya,SA,2021-07-22 16:52:59,18.3851,42.4509,66.72,88,94,6.91,overcast clouds
587,Ganzhou,CN,2021-07-22 16:53:00,28.8184,115.4327,78.24,82,20,5.57,few clouds
588,Gravdal,NO,2021-07-22 16:53:00,68.1214,13.5031,49.68,81,75,10.36,broken clouds
589,Tomari,RU,2021-07-22 16:53:01,47.7658,142.0683,66.85,99,99,9.91,overcast clouds
590,Kholtoson,RU,2021-07-22 16:53:01,50.2981,103.3097,57.72,91,59,1.48,broken clouds
591,Yenagoa,NG,2021-07-22 16:53:02,4.9247,6.2642,77.9,83,100,6.11,light rain
592,Oranjemund,NA,2021-07-22 16:53:02,-28.55,16.4333,57.0,56,7,22.82,clear sky
593,Tura,IN,2021-07-22 16:53:03,25.5198,90.2201,74.86,98,92,4.45,overcast clouds
594,Fort-Shevchenko,KZ,2021-07-22 16:53:03,44.5086,50.263,88.29,46,40,7.76,scattered clouds
595,Saint Anthony,US,2021-07-22 16:53:03,45.0205,-93.218,87.93,57,90,5.01,overcast clouds
596,The Valley,AI,2021-07-22 16:53:03,18.217,-63.0578,87.66,79,75,18.41,broken clouds
597,Flinders,AU,2021-07-22 16:53:03,-34.5833,150.8552,55.38,70,100,4.0,overcast clouds
598,La Palma,US,2021-07-22 16:53:03,33.8464,-118.0467,93.11,73,75,3.0,broken clouds
599,Araouane,ML,2021-07-22 16:53:04,18.9048,-3.5265,106.05,18,27,15.5,scattered clouds
600,Navrongo,GH,2021-07-22 16:53:04,10.8956,-1.0921,88.95,48,83,8.25,broken clouds
601,Severo-Yeniseyskiy,RU,2021-07-22 16:53:04,60.3725,93.0408,53.06,75,67,3.6,broken clouds
602,Vila,PT,2021-07-22 16:53:05,42.0304,-8.1588,79.74,62,39,8.61,scattered clouds
603,Bandundu,CD,2021-07-22 16:53:05,-3.3167,17.3667,87.94,21,61,1.92,broken clouds
604,Diapaga,BF,2021-07-22 16:53:05,12.0708,1.7889,90.86,43,76,8.66,broken clouds
605,Pontianak,ID,2021-07-22 16:53:05,-0.0333,109.3333,78.78,94,75,2.3,broken clouds
606,Baiyin,CN,2021-07-22 16:53:06,36.5583,104.2081,77.88,57,57,7.4,broken clouds
607,Tecoanapa,MX,2021-07-22 16:53:06,16.5167,-98.75,88.32,57,57,4.97,broken clouds
608,Flin Flon,CA,2021-07-22 16:53:06,54.7682,-101.865,69.64,94,90,10.36,smoke
609,Yibin,CN,2021-07-22 16:53:06,28.7667,104.6238,77.52,94,83,2.26,light rain
610,Sovetskiy,RU,2021-07-22 16:53:06,61.3614,63.5842,57.97,95,100,7.76,light rain
611,Kristinehamn,SE,2021-07-22 16:53:06,59.3098,14.1081,81.03,53,6,11.88,clear sky
612,Nantucket,US,2021-07-22 16:53:07,41.2835,-70.0995,75.04,81,23,15.84,few clouds
613,Havre-Saint-Pierre,CA,2021-07-22 16:53:07,50.2334,-63.5986,60.8,88,90,6.91,overcast clouds
614,North Platte,US,2021-07-22 16:53:07,41.1239,-100.7654,84.99,28,5,13.42,clear sky
615,Luanda,AO,2021-07-22 16:50:07,-8.8368,13.2343,75.2,78,20,9.22,few clouds
616,Quatre Cocos,MU,2021-07-22 16:53:07,-20.2078,57.7625,70.09,67,26,16.42,scattered clouds
617,Port Dover,CA,2021-07-22 16:53:07,42.7834,-80.1997,78.21,78,84,4.34,broken clouds
618,Oktyabrskoye,RU,2021-07-22 16:53:08,43.0645,44.7417,68.14,88,90,15.66,overcast clouds
619,Puro,PH,2021-07-22 16:53:08,12.4841,123.3827,82.24,76,100,28.01,light rain
620,Kaka,TM,2021-07-22 16:53:08,37.3482,59.6143,93.13,14,2,3.44,clear sky
621,Deloraine,AU,2021-07-22 16:53:08,-41.5333,146.6667,49.24,97,100,5.55,overcast clouds
622,Mackay,AU,2021-07-22 16:52:01,-21.15,149.2,53.04,93,3,4.61,clear sky
623,Ciudad Bolivar,VE,2021-07-22 16:53:09,8.1222,-63.5497,87.46,61,66,6.93,broken clouds
624,Onda,ES,2021-07-22 16:53:09,39.9667,-0.25,96.33,35,0,7.85,clear sky
625,Pochutla,MX,2021-07-22 16:53:09,15.7432,-96.4661,91.81,50,19,4.65,few clouds
626,Port Washington,US,2021-07-22 16:53:10,40.8257,-73.6982,82.85,50,75,4.0,broken clouds
627,Saint-Francois,FR,2021-07-22 16:53:10,46.4154,3.9054,83.64,42,0,8.05,clear sky
628,Sao Miguel Do Tapuio,BR,2021-07-22 16:53:11,-5.5036,-41.3233,95.88,23,41,8.5,scattered clouds
629,Abalak,RU,2021-07-22 16:53:11,58.1286,68.5944,67.62,85,90,6.4,overcast clouds
630,Palauig,PH,2021-07-22 16:53:11,15.435,119.9045,79.7,93,100,11.81,moderate rain
631,Karasjok,NO,2021-07-22 16:53:11,69.4719,25.5112,48.31,84,100,17.47,overcast clouds
632,Nekrasovka,RU,2021-07-22 16:53:12,48.3525,135.2325,77.02,88,0,4.47,clear sky
633,Tigil,RU,2021-07-22 16:53:12,57.8,158.6667,55.53,76,94,2.19,overcast clouds
634,Strezhevoy,RU,2021-07-22 16:53:12,60.7333,77.5889,58.98,91,78,0.74,broken clouds
635,Henties Bay,NA,2021-07-22 16:53:12,-22.116,14.2845,60.85,71,0,11.86,clear sky
636,Kununurra,AU,2021-07-22 16:50:12,-15.7667,128.7333,58.98,77,42,1.14,scattered clouds
637,Paraipaba,BR,2021-07-22 16:53:12,-3.4394,-39.1483,81.0,47,80,14.18,broken clouds
638,Kingston,JM,2021-07-22 16:53:13,17.997,-76.7936,89.15,63,40,1.99,light rain
639,Qui Nhon,VN,2021-07-22 16:53:13,13.7667,109.2333,84.78,64,100,11.77,overcast clouds
640,Tsikalaria,GR,2021-07-22 16:53:13,35.4833,24.0667,85.86,54,20,13.8,few clouds
641,Laplace,US,2021-07-22 16:53:13,30.0666,-90.4801,92.05,60,75,5.01,broken clouds
642,Les Cayes,HT,2021-07-22 16:53:14,18.2,-73.75,86.14,65,86,12.15,overcast clouds
643,Charters Towers,AU,2021-07-22 16:53:14,-20.1,146.2667,54.99,89,3,7.02,clear sky
644,Sabla,NG,2021-07-22 16:53:14,12.7525,4.7077,92.89,39,89,11.05,overcast clouds
645,Hilton Head Island,US,2021-07-22 16:53:14,32.2163,-80.7526,87.85,80,75,0.0,broken clouds
646,Dabakala,CI,2021-07-22 16:53:14,8.3667,-4.4333,82.78,66,95,5.08,overcast clouds
647,Moose Factory,CA,2021-07-22 16:53:14,51.2585,-80.6094,68.0,73,75,6.91,broken clouds
648,Pamyat Parizhskoy Kommuny,RU,2021-07-22 16:53:15,56.1048,44.4952,66.15,46,9,6.89,clear sky
649,Tucurui,BR,2021-07-22 16:53:15,-3.7661,-49.6725,94.35,33,7,6.53,clear sky
650,Calabozo,VE,2021-07-22 16:53:15,8.9242,-67.4293,81.19,81,74,6.15,broken clouds
651,Vestmanna,FO,2021-07-22 16:53:16,62.1564,-7.1664,52.72,94,75,6.91,broken clouds
652,Vrangel,RU,2021-07-22 16:53:16,42.7297,133.0839,73.78,94,79,5.93,broken clouds
653,Vieques,PR,2021-07-22 16:53:16,18.425,-65.8329,90.66,66,20,18.41,few clouds
654,Isangel,VU,2021-07-22 16:53:16,-19.55,169.2667,73.65,88,99,8.97,overcast clouds
655,Sinnamary,GF,2021-07-22 16:53:17,5.3833,-52.95,84.96,72,22,10.07,few clouds
656,Ochakiv,UA,2021-07-22 16:53:17,46.6128,31.5498,75.38,58,100,18.75,overcast clouds
657,Kaoma,ZM,2021-07-22 16:53:17,-14.7833,24.8,64.08,19,2,6.55,clear sky
658,West Bay,KY,2021-07-22 16:53:17,19.3667,-81.4167,87.87,70,20,8.05,few clouds
659,Puerto Madryn,AR,2021-07-22 16:53:17,-42.7692,-65.0385,61.92,31,100,11.63,overcast clouds
660,Gunjur,GM,2021-07-22 16:53:18,13.2019,-16.7339,89.67,70,75,9.22,broken clouds
661,San Quintin,MX,2021-07-22 16:53:18,30.4833,-115.95,74.32,73,27,6.33,scattered clouds
662,Fort Collins,US,2021-07-22 16:53:18,40.5853,-105.0844,92.52,40,1,1.01,clear sky
663,Oskarshamn,SE,2021-07-22 16:53:19,57.2645,16.4484,79.99,43,4,8.32,clear sky
664,Mount Gambier,AU,2021-07-22 16:53:19,-37.8333,140.7667,42.71,93,90,10.36,overcast clouds
665,Luwuk,ID,2021-07-22 16:53:20,-0.9516,122.7875,75.43,92,100,6.67,light rain
666,Manta,EC,2021-07-22 16:52:43,-0.95,-80.7333,78.58,78,20,10.36,few clouds
667,Soller,ES,2021-07-22 16:53:20,39.7662,2.7152,96.35,33,0,1.99,clear sky
668,Panjakent,TJ,2021-07-22 16:53:21,39.4952,67.6093,80.4,26,11,4.18,few clouds
